$GPVTG,359,T,358,M,001.4,N,0002.5,K*7D
$GPRMC,125502,A,4424.8087,N,00852.9998,E,001.7,350.0,010611,000.9,E*76
$GPGGA,125502,4424.8087,N,00852.9998,E,1,05,3.5,12.3,M,48.2,M,,*71
$GPGSA,A,3,,,09,15,,18,26,27,,,,,3.7,3.5,1.0*34
$GPGSV,3,1,11,05,14,191,00,08,14,073,00,09,29,276,44,15,67,300,43*7B
$GPGSV,3,2,11,17,26,115,00,18,19,314,43,26,69,127,00,27,50,287,47*7E
$GPGSV,3,3,11,28,44,052,00,33,33,214,42,37,33,213,00*41
$GPGLL,4424.8087,N,00852.9998,E,125502,A*24
$GPVTG,350,T,349,M,001.7,N,0003.2,K*71
$GPRMC,125504,A,4424.8097,N,00853.0000,E,001.9,353.7,010611,000.9,E*7B
$GPGGA,125504,4424.8097,N,00853.0000,E,1,06,3.8,11.6,M,48.2,M,,*7E
$GPGSA,A,3,05,,09,15,,18,26,27,,,,,3.9,3.8,1.0*32
$GPGSV,3,1,11,05,14,191,43,08,14,073,00,09,29,276,43,15,67,300,43*7B
$GPGSV,3,2,11,17,26,115,00,18,19,314,43,26,69,127,35,27,50,287,44*7B
$GPGSV,3,3,11,28,44,052,00,33,33,214,44,37,33,213,00*47
$GPGLL,4424.8097,N,00853.0000,E,125504,A*23
$GPVTG,354,T,353,M,001.9,N,0003.4,K*76
$GPRMC,125506,A,4424.8105,N,00853.0003,E,001.4,349.2,010611,000.9,E*73
$GPGGA,125506,4424.8105,N,00853.0003,E,1,07,4.3,10.7,M,48.2,M,,*78
$GPGSA,A,3,05,,09,15,17,18,26,27,,,,,4.5,4.3,1.0*33
$GPGSV,3,1,11,05,14,191,41,08,14,073,00,09,29,276,42,15,67,300,43*78
$GPGSV,3,2,11,17,26,115,39,18,19,314,43,26,69,127,35,27,50,287,44*71
$GPGSV,3,3,11,28,44,052,00,33,33,214,43,37,33,213,00*40
$GPGLL,4424.8105,N,00853.0003,E,125506,A*28
$GPVTG,349,T,348,M,001.4,N,0002.6,K*7E
$GPRMC,125508,A,4424.8113,N,00853.0005,E,001.3,352.2,010611,000.9,E*71
$GPGGA,125508,4424.8113,N,00853.0005,E,1,07,3.5,10.0,M,48.2,M,,*71
$GPGSA,A,3,05,,09,15,17,18,26,27,,,,,3.7,3.5,1.0*37
$GPGSV,3,1,11,05,14,191,41,08,14,073,00,09,29,276,44,15,67,300,43*7E
$GPGSV,3,2,11,17,26,115,00,18,19,314,42,26,69,127,36,27,50,287,44*79
$GPGSV,3,3,11,28,44,052,00,33,33,214,42,37,33,213,00*41
$GPGLL,4424.8113,N,00853.0005,E,125508,A*27
$GPVTG,352,T,351,M,001.3,N,0002.5,K*78
$GPRMC,125510,A,4424.8121,N,00853.0004,E,001.3,357.7,010611,000.9,E*78
$GPGGA,125510,4424.8121,N,00853.0004,E,6,07,5.9,9.9,M,48.2,M,,*44
$GPGSA,A,3,05,,09,15,17,18,26,27,,,,,6.0,5.9,1.0*3F
$GPGSV,3,1,11,05,14,191,40,08,14,073,00,09,29,276,43,15,67,300,43*78
$GPGSV,3,2,11,17,26,115,00,18,19,314,00,26,69,127,35,27,50,287,45*7D
$GPGSV,3,3,11,28,44,052,00,33,33,214,41,37,33,213,00*42
$GPGLL,4424.8121,N,00853.0004,E,125510,A*2E
$GPVTG,358,T,357,M,001.3,N,0002.5,K*74
$GPRMC,125512,A,4424.8129,N,00853.0004,E,001.3,357.7,010611,000.9,E*72
$GPGGA,125512,4424.8129,N,00853.0004,E,6,07,10.0,9.9,M,48.2,M,,*73
$GPGSA,A,3,05,,09,15,17,18,26,27,,,,,10.1,10.0,1.0*34
$GPGSV,3,1,11,05,14,191,38,08,14,073,00,09,29,276,42,15,67,300,43*76
$GPGSV,3,2,11,17,26,115,00,18,19,314,00,26,69,127,00,27,50,287,45*7B
$GPGSV,3,3,11,28,44,052,00,33,33,214,00,37,33,213,00*47
$GPGLL,4424.8129,N,00853.0004,E,125512,A*24
$GPVTG,358,T,357,M,001.3,N,0002.5,K*74
$GPRMC,125514,A,4424.8134,N,00853.0004,E,001.3,353.4,010611,000.9,E*7F
$GPGGA,125514,4424.8134,N,00853.0004,E,1,07,2.4,9.8,M,48.2,M,,*48
$GPGSA,A,3,05,,09,15,17,18,26,27,,,,,3.2,2.4,1.3*31
$GPGSV,3,1,11,05,14,191,39,08,14,073,00,09,29,276,42,15,67,300,43*77
$GPGSV,3,2,11,17,26,115,37,18,19,314,00,26,69,127,00,27,50,287,44*7E
$GPGSV,3,3,11,28,44,052,00,33,33,214,00,37,33,213,00*47
$GPGLL,4424.8134,N,00853.0004,E,125514,A*2E
$GPVTG,353,T,353,M,001.3,N,0002.4,K*7A
$GPRMC,125516,A,4424.8140,N,00853.0004,E,001.5,356.3,010611,000.9,E*7A
$GPGGA,125516,4424.8140,N,00853.0004,E,1,07,1.4,9.9,M,48.2,M,,*4B
$GPGSA,A,3,05,,09,15,17,18,26,27,,,,,2.1,1.4,1.1*32
$GPGSV,3,1,11,05,14,191,40,08,14,073,00,09,29,276,43,15,67,300,42*79
$GPGSV,3,2,11,17,26,115,35,18,19,314,35,26,69,127,34,27,50,287,42*7B
$GPGSV,3,3,11,28,44,052,00,33,33,214,00,37,33,213,00*47
$GPGLL,4424.8140,N,00853.0004,E,125516,A*2F
$GPVTG,356,T,355,M,001.5,N,0002.8,K*73
$GPRMC,125518,A,4424.8152,N,00853.0005,E,001.9,007.6,010611,000.9,E*78
$GPGGA,125518,4424.8152,N,00853.0005,E,1,07,1.8,9.9,M,48.2,M,,*4B
$GPGSA,A,3,05,,09,15,17,18,26,27,,,,,2.4,1.8,1.0*3A
$GPGSV,3,1,11,05,14,191,38,08,14,073,00,09,29,276,43,15,67,300,41*75
$GPGSV,3,2,11,17,26,115,34,18,19,314,40,26,69,127,33,27,50,287,00*79
$GPGSV,3,3,11,28,44,052,00,33,33,214,43,37,33,213,00*40
$GPGLL,4424.8152,N,00853.0005,E,125518,A*23
$GPVTG,008,T,007,M,001.9,N,0003.5,K*7F
$GPRMC,125520,A,4424.8163,N,00853.0009,E,001.7,352.1,010611,000.9,E*77
$GPGGA,125520,4424.8163,N,00853.0009,E,1,07,1.8,9.6,M,48.2,M,,*41
$GPGSA,A,3,05,,09,15,17,18,26,27,,,,,2.4,1.8,1.0*3A
$GPGSV,3,1,11,05,14,191,38,08,14,073,00,09,29,276,46,15,67,300,42*73
$GPGSV,3,2,11,17,26,115,00,18,19,314,41,26,69,127,33,27,50,287,39*75
$GPGSV,3,3,11,28,44,052,00,33,33,214,43,37,33,213,00*40
$GPGLL,4424.8163,N,00853.0009,E,125520,A*26
$GPVTG,352,T,351,M,001.7,N,0003.2,K*7A
$GPRMC,125522,A,4424.8173,N,00853.0010,E,001.6,357.2,010611,000.9,E*7B
$GPGGA,125522,4424.8173,N,00853.0010,E,1,07,2.9,9.6,M,48.2,M,,*48
$GPGSA,A,3,05,,09,15,17,18,26,27,,,,,3.0,2.9,1.0*3D
$GPGSV,3,1,11,05,14,191,38,08,14,073,00,09,29,276,45,15,67,300,42*70
$GPGSV,3,2,11,17,26,115,00,18,19,314,00,26,69,127,00,27,50,287,43*7D
$GPGSV,3,3,11,28,44,052,00,33,33,214,00,37,33,213,00*47
$GPGLL,4424.8173,N,00853.0010,E,125522,A*2D
$GPVTG,357,T,356,M,001.6,N,0003.0,K*7B
$GPRMC,125524,A,4424.8184,N,00853.0011,E,002.2,353.8,010611,000.9,E*7D
$GPGGA,125524,4424.8184,N,00853.0011,E,1,07,2.7,9.1,M,48.2,M,,*4E
$GPGSA,A,3,05,,09,15,17,18,26,27,,,,,3.4,2.7,1.0*37
$GPGSV,3,1,11,05,13,191,38,08,14,073,00,09,29,276,45,15,67,300,43*76
$GPGSV,3,2,11,17,26,115,40,18,19,314,33,26,69,127,38,27,50,287,42*73
$GPGSV,3,3,11,28,44,052,00,33,33,214,00,37,33,213,00*47
$GPGLL,4424.8184,N,00853.0011,E,125524,A*22
$GPVTG,354,T,353,M,002.2,N,0004.1,K*7C
$GPRMC,125526,A,4424.8194,N,00853.0011,E,001.9,355.1,010611,000.9,E*79
$GPGGA,125526,4424.8194,N,00853.0011,E,1,07,5.4,8.9,M,48.2,M,,*40
$GPGSA,A,3,05,,09,15,17,18,26,27,,,,,5.5,5.4,1.0*34
$GPGSV,3,1,11,05,13,191,00,08,14,073,00,09,29,276,47,15,67,300,43*7F
$GPGSV,3,2,11,17,26,115,39,18,19,314,32,26,69,127,37,27,50,287,44*75
$GPGSV,3,3,11,28,44,052,00,33,33,214,37,37,33,213,00*43
$GPGLL,4424.8194,N,00853.0011,E,125526,A*21
$GPVTG,355,T,354,M,001.9,N,0003.6,K*72
$GPRMC,125528,A,4424.8204,N,00853.0009,E,001.9,355.3,010611,000.9,E*76
$GPGGA,125528,4424.8204,N,00853.0009,E,1,07,5.4,8.8,M,48.2,M,,*4C
$GPGSA,A,3,05,,09,15,17,18,26,27,,,,,5.5,5.4,1.0*34
$GPGSV,3,1,11,05,13,191,00,08,14,073,00,09,29,276,45,15,67,300,43*7D
$GPGSV,3,2,11,17,26,115,38,18,19,314,00,26,69,127,00,27,50,287,44*71
$GPGSV,3,3,11,28,44,052,00,33,33,214,40,37,33,213,40*47
$GPGLL,4424.8204,N,00853.0009,E,125528,A*2C
$GPVTG,355,T,354,M,001.9,N,0003.6,K*72
$GPRMC,125530,A,4424.8212,N,00853.0008,E,001.8,353.8,010611,000.9,E*75
$GPGGA,125530,4424.8212,N,00853.0008,E,1,07,5.4,8.8,M,48.2,M,,*43
$GPGSA,A,3,05,,09,15,17,18,26,27,,,,,5.5,5.4,1.0*34
$GPGSV,3,1,11,05,13,191,00,08,14,073,00,09,29,276,44,15,67,300,42*7D
$GPGSV,3,2,11,17,26,115,39,18,19,314,00,26,69,127,00,27,50,287,43*77
$GPGSV,3,3,11,28,44,052,00,33,33,214,43,37,33,213,39*4A
$GPGLL,4424.8212,N,00853.0008,E,125530,A*23
$GPVTG,354,T,353,M,001.8,N,0003.4,K*77
$GPRMC,125532,A,4424.8224,N,00853.0008,E,001.3,341.9,010611,000.9,E*7B
$GPGGA,125532,4424.8224,N,00853.0008,E,1,07,3.0,8.1,M,48.2,M,,*4F
$GPGSA,A,3,05,,09,15,17,18,26,27,,,,,4.9,3.0,1.0*3B
$GPGSV,3,1,11,05,13,191,33,08,14,073,00,09,29,276,43,15,67,300,41*79
$GPGSV,3,2,11,17,26,115,37,18,19,314,00,26,69,127,00,27,50,287,43*79
$GPGSV,3,3,11,28,44,052,00,33,33,214,43,37,33,213,40*44
$GPGLL,4424.8224,N,00853.0008,E,125532,A*24
$GPVTG,342,T,341,M,001.3,N,0002.4,K*79
$GPRMC,125534,A,4424.8227,N,00853.0001,E,001.6,279.9,010611,000.9,E*78
$GPGGA,125534,4424.8227,N,00853.0001,E,1,07,2.0,8.0,M,48.2,M,,*43
$GPGSA,A,3,05,,09,15,17,18,26,27,,,,,2.3,2.0,1.0*36
$GPGSV,3,1,11,05,13,191,38,08,14,073,00,09,29,276,41,15,67,300,41*70
$GPGSV,3,2,11,17,26,115,40,18,19,314,00,26,69,127,40,27,50,287,42*7C
$GPGSV,3,3,11,28,44,052,00,33,33,214,00,37,33,213,40*43
$GPGLL,4424.8227,N,00853.0001,E,125534,A*28
$GPVTG,280,T,279,M,001.6,N,0003.0,K*7C
$GPRMC,125536,A,4424.8225,N,00852.9990,E,001.7,272.6,010611,000.9,E*74
$GPGGA,125536,4424.8225,N,00852.9990,E,1,06,2.1,7.9,M,48.2,M,,*4C
$GPGSA,A,3,05,,09,15,17,,26,27,,,,,2.6,2.1,1.4*3F
$GPGSV,3,1,11,05,13,191,43,08,13,073,00,09,29,276,00,15,67,300,39*71
$GPGSV,3,2,11,17,26,115,43,18,19,314,00,26,69,127,42,27,50,287,40*7F
$GPGSV,3,3,11,28,44,052,00,33,33,214,00,37,33,213,42*41
$GPGLL,4424.8225,N,00852.9990,E,125536,A*21
$GPVTG,273,T,272,M,001.7,N,0003.2,K*78
$GPRMC,125538,A,4424.8223,N,00852.9976,E,001.9,259.4,010611,000.9,E*71
$GPGGA,125538,4424.8223,N,00852.9976,E,1,06,2.2,7.5,M,48.2,M,,*43
$GPGSA,A,3,05,,09,15,17,,26,27,,,,,2.7,2.2,1.0*39
$GPGSV,3,1,11,05,13,191,44,08,13,073,00,09,29,276,36,15,67,300,38*72
$GPGSV,3,2,11,17,26,115,45,18,19,314,00,26,69,127,43,27,50,287,39*76
$GPGSV,3,3,11,28,44,052,00,33,33,214,00,37,33,213,43*40
$GPGLL,4424.8223,N,00852.9976,E,125538,A*21
$GPVTG,259,T,259,M,001.9,N,0003.5,K*70
$GPRMC,125540,A,4424.8221,N,00852.9962,E,001.9,259.9,010611,000.9,E*74
$GPGGA,125540,4424.8221,N,00852.9962,E,6,06,2.3,7.4,M,48.2,M,,*4C
$GPGSA,A,3,05,,09,15,17,,26,27,,,,,2.9,2.3,1.3*35
$GPGSV,3,1,11,05,13,191,42,08,13,073,00,09,30,277,37,15,67,300,38*7C
$GPGSV,3,2,11,17,26,115,46,18,19,314,00,26,69,127,43,27,50,287,37*7B
$GPGSV,3,3,11,28,44,052,00,33,33,214,00,37,33,213,44*47
$GPGLL,4424.8221,N,00852.9962,E,125540,A*29
$GPVTG,260,T,259,M,001.9,N,0003.5,K*7A
$GPRMC,125542,A,4424.8221,N,00852.9951,E,001.6,278.7,010611,000.9,E*74
$GPGGA,125542,4424.8221,N,00852.9951,E,1,07,1.8,7.1,M,48.2,M,,*45
$GPGSA,A,3,05,,09,15,17,,26,27,28,,,,2.9,1.8,1.5*31
$GPGSV,3,1,11,05,13,191,40,08,13,073,00,09,30,277,38,15,67,300,36*7F
$GPGSV,3,2,11,17,26,115,44,18,19,314,00,26,69,127,43,27,50,287,39*77
$GPGSV,3,3,11,28,44,052,00,33,33,214,00,37,33,213,42*41
$GPGLL,4424.8221,N,00852.9951,E,125542,A*2B
$GPVTG,279,T,278,M,001.6,N,0003.0,K*7B
$GPRMC,125544,A,4424.8216,N,00852.9936,E,001.6,286.0,010611,000.9,E*71
$GPGGA,125544,4424.8216,N,00852.9936,E,1,07,2.9,7.0,M,48.2,M,,*45
$GPGSA,A,3,05,,09,15,17,,26,27,28,,,,3.9,2.9,1.7*30
$GPGSV,3,1,11,05,13,191,00,08,13,073,00,09,30,277,36,15,67,300,38*7B
$GPGSV,3,2,11,17,26,115,44,18,19,314,00,26,69,127,43,27,50,287,40*79
$GPGSV,3,3,11,28,44,052,00,33,33,214,00,37,33,213,39*4D
$GPGLL,4424.8216,N,00852.9936,E,125544,A*28
$GPVTG,286,T,285,M,001.6,N,0002.9,K*71
$GPRMC,125546,A,4424.8217,N,00852.9925,E,001.6,275.0,010611,000.9,E*7C
$GPGGA,125546,4424.8217,N,00852.9925,E,1,07,2.0,7.1,M,48.2,M,,*4C
$GPGSA,A,3,05,,09,15,17,,26,27,28,,,,3.3,2.0,1.2*36
$GPGSV,3,1,11,05,13,191,35,08,13,073,00,09,30,277,38,15,67,300,38*73
$GPGSV,3,2,11,17,26,114,44,18,19,314,00,26,69,127,43,27,50,287,39*76
$GPGSV,3,3,11,28,44,052,00,33,33,214,00,37,33,213,39*4D
$GPGLL,4424.8217,N,00852.9925,E,125546,A*29
$GPVTG,275,T,274,M,001.6,N,0002.9,K*73
$GPRMC,125548,A,4424.8213,N,00852.9917,E,000.4,265.2,010611,000.9,E*77
$GPGGA,125548,4424.8213,N,00852.9917,E,1,07,2.0,7.0,M,48.2,M,,*46
$GPGSA,A,3,05,,09,15,17,,26,27,28,,,,3.4,2.0,1.4*37
$GPGSV,3,1,11,05,13,191,40,08,13,073,00,09,30,277,37,15,67,300,36*70
$GPGSV,3,2,11,17,26,114,43,18,19,314,00,26,69,127,43,27,50,287,40*7F
$GPGSV,3,3,11,28,44,052,00,33,33,214,00,37,33,213,44*47
$GPGLL,4424.8213,N,00852.9917,E,125548,A*22
$GPVTG,265,T,264,M,000.4,N,0000.8,K*73
$GPRMC,125550,A,4424.8205,N,00852.9911,E,000.0,265.2,010611,000.9,E*7B
$GPGGA,125550,4424.8205,N,00852.9911,E,1,07,2.1,8.4,M,48.2,M,,*44
$GPGSA,A,3,05,,09,15,17,,26,27,28,,,,2.5,2.1,1.2*30
$GPGSV,3,1,11,05,13,191,43,08,13,073,00,09,30,277,37,15,67,300,38*7D
$GPGSV,3,2,11,17,26,114,42,18,19,314,00,26,69,127,43,27,50,287,41*7F
$GPGSV,3,3,11,28,44,052,00,33,33,214,00,37,33,213,45*46
$GPGLL,4424.8205,N,00852.9911,E,125550,A*2A
$GPVTG,265,T,264,M,000.0,N,0000.0,K*7F
$GPRMC,125552,A,4424.8204,N,00852.9911,E,000.0,265.2,010611,000.9,E*78
$GPGGA,125552,4424.8204,N,00852.9911,E,1,06,2.0,8.5,M,48.2,M,,*46
$GPGSA,A,3,05,,09,15,17,,26,27,,,,,2.3,2.0,1.1*3E
$GPGSV,3,1,11,05,13,191,44,08,13,073,00,09,30,277,38,15,67,300,38*75
$GPGSV,3,2,11,17,26,114,42,18,19,314,00,26,69,127,42,27,50,287,41*7E
$GPGSV,3,3,11,28,44,052,00,33,33,214,00,37,33,213,44*47
$GPGLL,4424.8204,N,00852.9911,E,125552,A*29
$GPVTG,265,T,264,M,000.0,N,0000.0,K*7F
$GPRMC,125554,A,4424.8202,N,00852.9911,E,000.0,265.2,010611,000.9,E*78
$GPGGA,125554,4424.8202,N,00852.9911,E,1,06,2.0,8.8,M,48.2,M,,*4B
$GPGSA,A,3,05,,09,15,17,,26,27,,,,,2.3,2.0,1.1*3E
$GPGSV,3,1,11,05,13,191,44,08,13,073,00,09,30,277,38,15,67,300,39*74
$GPGSV,3,2,11,17,26,114,42,18,19,314,00,26,69,127,43,27,50,287,42*7C
$GPGSV,3,3,11,28,44,052,00,33,33,214,00,37,33,213,44*47
$GPGLL,4424.8202,N,00852.9911,E,125554,A*29
$GPVTG,265,T,264,M,000.0,N,0000.0,K*7F
$GPRMC,125556,A,4424.8198,N,00852.9910,E,000.0,265.2,010611,000.9,E*7B
$GPGGA,125556,4424.8198,N,00852.9910,E,1,06,1.7,9.1,M,48.2,M,,*44
$GPGSA,A,3,05,,09,15,17,,26,27,,,,,2.0,1.7,1.0*38
$GPGSV,3,1,11,05,13,191,46,08,13,073,00,09,30,277,38,15,67,300,39*76
$GPGSV,3,2,11,17,26,114,42,18,19,314,00,26,69,127,43,27,50,287,42*7C
$GPGSV,3,3,11,28,44,052,00,33,33,214,00,37,33,213,44*47
$GPGLL,4424.8198,N,00852.9910,E,125556,A*2A
$GPVTG,265,T,264,M,000.0,N,0000.0,K*7F
$GPRMC,125558,A,4424.8189,N,00852.9906,E,000.0,265.2,010611,000.9,E*72
$GPGGA,125558,4424.8189,N,00852.9906,E,1,07,1.8,10.7,M,48.2,M,,*7D
$GPGSA,A,3,05,,09,15,17,,26,27,28,,,,2.2,1.8,1.2*3D
$GPGSV,3,1,11,05,13,191,46,08,13,073,00,09,30,277,36,15,67,300,39*78
$GPGSV,3,2,11,17,26,114,41,18,19,314,00,26,69,127,43,27,50,287,42*7F
$GPGSV,3,3,11,28,44,052,32,33,33,214,00,37,33,213,44*46
$GPGLL,4424.8189,N,00852.9906,E,125558,A*23
$GPVTG,265,T,264,M,000.0,N,0000.0,K*7F
$GPRMC,125600,A,4424.8183,N,00852.9904,E,000.0,265.2,010611,000.9,E*74
$GPGGA,125600,4424.8183,N,00852.9904,E,1,07,1.8,11.4,M,48.2,M,,*79
$GPGSA,A,3,05,,09,15,17,,26,27,28,,,,2.2,1.8,1.2*3D
$GPGSV,3,1,11,05,13,191,46,08,13,073,00,09,30,277,00,15,67,300,39*7D
$GPGSV,3,2,11,17,26,114,41,18,19,314,00,26,69,127,43,27,50,287,43*7E
$GPGSV,3,3,11,28,44,052,00,33,33,214,00,37,33,213,44*47
$GPGLL,4424.8183,N,00852.9904,E,125600,A*25
$GPVTG,265,T,264,M,000.0,N,0000.0,K*7F
$GPRMC,125602,A,4424.8179,N,00852.9904,E,000.0,265.2,010611,000.9,E*73
$GPGGA,125602,4424.8179,N,00852.9904,E,1,07,1.8,12.1,M,48.2,M,,*78
$GPGSA,A,3,05,,09,15,17,,26,27,28,,,,2.2,1.8,1.2*3D
$GPGSV,3,1,11,05,13,191,46,08,13,073,00,09,30,277,00,15,68,299,39*73
$GPGSV,3,2,11,17,26,114,40,18,19,314,00,26,69,127,43,27,50,287,43*7F
$GPGSV,3,3,11,28,44,052,00,33,33,214,00,37,33,213,44*47
$GPGLL,4424.8179,N,00852.9904,E,125602,A*22
$GPVTG,265,T,264,M,000.0,N,0000.0,K*7F
$GPRMC,125604,A,4424.8175,N,00852.9902,E,000.0,265.2,010611,000.9,E*7F
$GPGGA,125604,4424.8175,N,00852.9902,E,1,07,1.8,12.3,M,48.2,M,,*76
$GPGSA,A,3,05,,09,15,17,,26,27,28,,,,2.2,1.8,1.2*3D
$GPGSV,3,1,11,05,13,191,46,08,13,073,00,09,30,277,35,15,68,299,39*75
$GPGSV,3,2,11,17,26,114,40,18,19,314,00,26,69,127,43,27,50,287,42*7E
$GPGSV,3,3,11,28,44,052,00,33,33,214,00,37,33,213,44*47
$GPGLL,4424.8175,N,00852.9902,E,125604,A*2E
$GPVTG,265,T,264,M,000.0,N,0000.0,K*7F
$GPRMC,125606,A,4424.8172,N,00852.9901,E,000.0,265.2,010611,000.9,E*79
$GPGGA,125606,4424.8172,N,00852.9901,E,1,07,1.8,12.4,M,48.2,M,,*77
$GPGSA,A,3,05,,09,15,17,,26,27,28,,,,2.3,1.8,1.3*3D
$GPGSV,3,1,11,05,13,191,46,08,13,073,00,09,30,277,35,15,68,299,40*7B
$GPGSV,3,2,11,17,26,114,40,18,19,314,00,26,69,127,43,27,50,287,42*7E
$GPGSV,3,3,11,28,44,052,00,33,33,214,00,37,33,213,44*47
$GPGLL,4424.8172,N,00852.9901,E,125606,A*28
$GPVTG,265,T,264,M,000.0,N,0000.0,K*7F
$GPRMC,125608,A,4424.8171,N,00852.9900,E,000.5,274.5,010611,000.9,E*77
$GPGGA,125608,4424.8171,N,00852.9900,E,1,06,1.9,12.4,M,48.2,M,,*7B
$GPGSA,A,3,05,,09,15,17,,26,27,,,,,2.3,1.9,1.0*35
$GPGSV,3,1,11,05,13,191,47,08,13,073,00,09,30,277,35,15,68,299,41*7B
$GPGSV,3,2,11,17,26,114,39,18,19,314,00,26,69,127,44,27,50,287,42*77
$GPGSV,3,3,11,28,44,052,00,33,33,214,00,37,33,213,45*46
$GPGLL,4424.8171,N,00852.9900,E,125608,A*24
$GPVTG,274,T,274,M,000.5,N,0001.0,K*7A
$GPRMC,125610,A,4424.8174,N,00852.9895,E,001.1,274.3,010611,000.9,E*75
$GPGGA,125610,4424.8174,N,00852.9895,E,1,06,2.0,11.3,M,48.2,M,,*74
$GPGSA,A,3,05,,09,15,17,,26,27,,,,,2.5,2.0,1.3*3A
$GPGSV,3,1,11,05,13,191,47,08,13,073,00,09,30,277,34,15,68,299,41*7A
$GPGSV,3,2,11,17,26,114,41,18,19,314,00,26,69,127,43,27,50,287,40*7D
$GPGSV,3,3,11,28,44,052,00,33,33,214,00,37,33,213,44*47
$GPGLL,4424.8174,N,00852.9895,E,125610,A*25
$GPVTG,274,T,273,M,001.1,N,0002.0,K*7B
$GPRMC,125612,A,4424.8173,N,00852.9882,E,001.5,269.8,010611,000.9,E*75
$GPGGA,125612,4424.8173,N,00852.9882,E,1,06,2.1,11.3,M,48.2,M,,*76
$GPGSA,A,3,05,,09,15,17,,26,27,,,,,2.5,2.1,1.0*38
$GPGSV,3,1,11,05,13,191,46,08,13,073,00,09,30,277,00,15,68,299,40*7D
$GPGSV,3,2,11,17,26,114,40,18,19,314,00,26,69,127,43,27,50,287,00*78
$GPGSV,3,3,11,28,44,052,00,33,33,214,00,37,33,213,43*40
$GPGLL,4424.8173,N,00852.9882,E,125612,A*26
$GPVTG,270,T,269,M,001.5,N,0002.8,K*78
$GPRMC,125614,A,4424.8173,N,00852.9873,E,001.7,272.3,010611,000.9,E*7E
$GPGGA,125614,4424.8173,N,00852.9873,E,1,06,2.3,10.8,M,48.2,M,,*76
$GPGSA,A,3,05,,09,15,17,,26,27,,,,,2.9,2.3,1.3*35
$GPGSV,3,1,11,05,13,191,45,08,13,073,00,09,30,277,00,15,68,299,39*70
$GPGSV,3,2,11,17,26,114,40,18,20,313,00,26,69,127,43,27,50,287,00*75
$GPGSV,3,3,11,28,44,052,00,33,33,214,00,37,33,213,44*47
$GPGLL,4424.8173,N,00852.9873,E,125614,A*2E
$GPVTG,272,T,271,M,001.7,N,0003.2,K*7A
$GPRMC,125616,A,4424.8174,N,00852.9860,E,001.8,275.4,010611,000.9,E*76
$GPGGA,125616,4424.8174,N,00852.9860,E,1,06,2.4,10.3,M,48.2,M,,*7D
$GPGSA,A,3,05,,09,15,17,,26,27,,,,,2.8,2.4,1.0*30
$GPGSV,3,1,11,05,13,191,44,08,13,073,00,09,30,277,00,15,68,299,39*71
$GPGSV,3,2,11,17,26,114,40,18,20,313,00,26,69,127,43,27,50,287,35*73
$GPGSV,3,3,11,28,44,052,00,33,33,214,00,37,33,213,42*41
$GPGLL,4424.8174,N,00852.9860,E,125616,A*29
$GPVTG,275,T,275,M,001.8,N,0003.4,K*70
$GPRMC,125618,A,4424.8177,N,00852.9847,E,001.8,273.9,010611,000.9,E*75
$GPGGA,125618,4424.8177,N,00852.9847,E,1,06,2.4,9.3,M,48.2,M,,*4D
$GPGSA,A,3,05,,09,15,17,,26,27,,,,,3.1,2.4,1.4*3C
$GPGSV,3,1,11,05,13,191,42,08,13,073,00,09,30,277,00,15,68,299,38*76
$GPGSV,3,2,11,17,26,114,40,18,20,313,00,26,69,127,43,27,50,287,00*75
$GPGSV,3,3,11,28,44,052,00,33,33,214,00,37,33,213,42*41
$GPGLL,4424.8177,N,00852.9847,E,125618,A*21
$GPVTG,274,T,273,M,001.8,N,0003.4,K*77
$GPRMC,125620,A,4424.8178,N,00852.9834,E,001.8,248.4,010611,000.9,E*70
$GPGGA,125620,4424.8178,N,00852.9834,E,1,05,2.4,8.4,M,48.2,M,,*48
$GPGSA,A,3,05,,,15,17,,26,27,,,,,2.7,2.4,1.0*36
$GPGSV,3,1,11,05,13,191,43,08,13,073,00,09,30,277,00,15,68,299,38*77
$GPGSV,3,2,11,17,26,114,39,18,20,313,00,26,69,127,43,27,50,287,00*7B
$GPGSV,3,3,11,28,44,052,00,33,33,214,00,37,33,213,42*41
$GPGLL,4424.8178,N,00852.9834,E,125620,A*21
$GPVTG,248,T,248,M,001.8,N,0003.4,K*70
$GPRMC,125622,A,4424.8180,N,00852.9820,E,001.8,260.6,010611,000.9,E*78
$GPGGA,125622,4424.8180,N,00852.9820,E,1,05,2.4,7.7,M,48.2,M,,*44
$GPGSA,A,3,05,,,15,17,,26,27,,,,,2.9,2.4,1.3*3B
$GPGSV,3,1,11,05,13,191,43,08,13,073,00,09,30,277,00,15,68,299,38*77
$GPGSV,3,2,11,17,26,114,40,18,20,313,00,26,69,127,43,27,50,287,00*75
$GPGSV,3,3,11,28,44,052,00,33,33,214,00,37,33,213,43*40
$GPGLL,4424.8180,N,00852.9820,E,125622,A*21
$GPVTG,261,T,260,M,001.8,N,0003.3,K*76
$GPRMC,125624,A,4424.8181,N,00852.9808,E,001.5,260.2,010611,000.9,E*7C
$GPGGA,125624,4424.8181,N,00852.9808,E,1,05,2.6,7.1,M,48.2,M,,*4D
$GPGSA,A,3,05,,,15,17,,26,27,,,,,3.0,2.6,1.0*32
$GPGSV,3,1,11,05,13,191,43,08,13,073,00,09,30,277,00,15,68,299,37*78
$GPGSV,3,2,11,17,26,114,40,18,20,313,00,26,69,127,43,27,50,287,00*75
$GPGSV,3,3,11,28,44,052,00,33,33,214,00,37,33,213,43*40
$GPGLL,4424.8181,N,00852.9808,E,125624,A*2C
$GPVTG,260,T,259,M,001.5,N,0002.8,K*7A
$GPRMC,125626,A,4424.8181,N,00852.9797,E,001.6,260.0,010611,000.9,E*76
$GPGGA,125626,4424.8181,N,00852.9797,E,1,05,2.6,6.7,M,48.2,M,,*41
$GPGSA,A,3,05,,,15,17,,26,27,,,,,3.0,2.6,1.0*32
$GPGSV,3,1,11,05,13,191,43,08,13,073,00,09,30,277,00,15,68,299,36*79
$GPGSV,3,2,11,17,26,114,41,18,20,313,00,26,69,127,43,27,50,287,00*74
$GPGSV,3,3,11,28,44,052,00,33,33,214,00,37,33,213,42*41
$GPGLL,4424.8181,N,00852.9797,E,125626,A*27
$GPVTG,260,T,259,M,001.6,N,0002.9,K*78
$GPRMC,125628,A,4424.8179,N,00852.9787,E,001.7,264.2,010611,000.9,E*79
$GPGGA,125628,4424.8179,N,00852.9787,E,1,05,2.3,6.5,M,48.2,M,,*4E
$GPGSA,A,3,05,,,15,17,,26,27,,,,,3.0,2.3,1.2*35
$GPGSV,3,1,11,05,13,191,40,08,13,073,00,09,30,277,00,15,68,299,00*7F
$GPGSV,3,2,11,17,26,114,43,18,20,313,00,26,69,127,44,27,50,287,33*71
$GPGSV,3,3,11,28,44,052,00,33,33,214,00,37,33,213,42*41
$GPGLL,4424.8179,N,00852.9787,E,125628,A*2F
$GPVTG,264,T,263,M,001.7,N,0003.1,K*7D
$GPRMC,125630,A,4424.8179,N,00852.9774,E,001.7,264.2,010611,000.9,E*7C
$GPGGA,125630,4424.8179,N,00852.9774,E,6,05,4.6,6.4,M,48.2,M,,*4E
$GPGSA,A,3,05,,,15,17,,26,27,,,,,5.2,4.6,1.0*30
$GPGSV,3,1,11,05,13,191,00,08,13,073,00,09,30,277,00,15,68,299,34*7C
$GPGSV,3,2,11,17,26,114,45,18,20,313,00,26,69,127,43,27,50,287,35*76
$GPGSV,3,3,11,28,44,052,00,33,33,214,00,37,33,213,40*43
$GPGLL,4424.8179,N,00852.9774,E,125630,A*2A
$GPVTG,264,T,263,M,001.7,N,0003.1,K*7D
$GPRMC,125632,A,4424.8178,N,00852.9761,E,001.7,264.2,010611,000.9,E*7B
$GPGGA,125632,4424.8178,N,00852.9761,E,6,05,6.0,6.4,M,48.2,M,,*4D
$GPGSA,A,3,05,,,15,17,,26,27,,,,,6.5,6.0,1.0*30
$GPGSV,3,1,11,05,13,191,00,08,13,073,00,09,30,277,00,15,68,299,37*7F
$GPGSV,3,2,11,17,26,114,46,18,20,313,00,26,69,127,43,27,50,287,00*73
$GPGSV,3,3,11,28,44,052,00,33,33,214,00,37,33,213,40*43
$GPGLL,4424.8178,N,00852.9761,E,125632,A*2D
$GPVTG,264,T,263,M,001.7,N,0003.1,K*7D
$GPRMC,125634,A,4424.8177,N,00852.9748,E,001.7,264.2,010611,000.9,E*79
$GPGGA,125634,4424.8177,N,00852.9748,E,6,05,7.2,6.3,M,48.2,M,,*4B
$GPGSA,A,3,05,,,15,17,,26,27,,,,,7.6,7.2,1.0*31
$GPGSV,3,1,11,05,13,191,00,08,13,073,00,09,30,277,00,15,68,299,36*7E
$GPGSV,3,2,11,17,26,114,45,18,20,313,00,26,69,127,42,27,50,287,00*71
$GPGSV,3,3,11,28,44,052,00,33,33,214,00,37,33,213,39*4D
$GPGLL,4424.8177,N,00852.9748,E,125634,A*2F
$GPVTG,264,T,263,M,001.7,N,0003.1,K*7D
$GPRMC,125636,A,4424.8176,N,00852.9736,E,001.7,264.2,010611,000.9,E*73
$GPGGA,125636,4424.8176,N,00852.9736,E,6,04,8.1,6.3,M,48.2,M,,*4C
$GPGSA,A,3,05,,,,17,,26,27,,,,,8.5,8.1,1.0*35
$GPGSV,3,1,11,05,13,191,00,08,13,073,00,09,30,277,00,15,68,299,37*7F
$GPGSV,3,2,11,17,26,114,44,18,20,313,00,26,69,127,43,27,50,287,30*72
$GPGSV,3,3,11,28,44,052,00,33,33,214,00,37,33,213,39*4D
$GPGLL,4424.8176,N,00852.9736,E,125636,A*25
$GPVTG,264,T,263,M,001.7,N,0003.1,K*7D
$GPRMC,125638,A,4424.8175,N,00852.9723,E,001.7,264.2,010611,000.9,E*7A
$GPGGA,125638,4424.8175,N,00852.9723,E,6,00,8.8,6.3,M,48.2,M,,*48
$GPGSA,A,3,,,,,,,,,,,,,9.1,8.8,1.0*3B
$GPGSV,3,1,11,05,13,191,00,08,13,073,00,09,30,277,00,15,68,299,38*70
$GPGSV,3,2,11,17,26,114,44,18,20,313,00,26,69,127,43,27,50,287,31*73
$GPGSV,3,3,11,28,44,052,00,33,33,214,00,37,33,213,41*42
$GPGLL,4424.8175,N,00852.9723,E,125638,A*2C
$GPVTG,264,T,263,M,001.7,N,0003.1,K*7D
$GPRMC,125640,A,4424.8174,N,00852.9710,E,001.7,264.2,010611,000.9,E*74
$GPGGA,125640,4424.8174,N,00852.9710,E,6,00,9.3,6.3,M,48.2,M,,*4C
$GPGSA,A,3,,,,,,,,,,,,,9.6,9.3,1.0*36
$GPGSV,3,1,11,05,13,191,00,08,13,073,00,09,30,277,00,15,68,299,38*70
$GPGSV,3,2,11,17,26,114,44,18,20,313,00,26,69,127,44,27,50,287,30*75
$GPGSV,3,3,11,28,44,052,00,33,33,214,00,37,33,213,40*43
$GPGLL,4424.8174,N,00852.9710,E,125640,A*22
$GPVTG,264,T,263,M,001.7,N,0003.1,K*7D
$GPRMC,125642,A,4424.8173,N,00852.9697,E,001.7,264.2,010611,000.9,E*7F
$GPGGA,125642,4424.8173,N,00852.9697,E,6,00,9.7,6.3,M,48.2,M,,*43
$GPGSA,A,3,,,,,,,,,,,,,9.9,9.7,1.0*3D
$GPGSV,3,1,11,05,13,191,00,08,13,073,00,09,30,277,00,15,68,299,39*71
$GPGSV,3,2,11,17,26,114,44,18,20,313,00,26,69,127,44,27,50,287,39*7C
$GPGSV,3,3,11,28,44,052,00,33,33,214,43,37,33,213,41*45
$GPGLL,4424.8173,N,00852.9697,E,125642,A*29
$GPVTG,264,T,263,M,001.7,N,0003.1,K*7D
$GPRMC,125644,A,4424.8152,N,00852.9664,E,001.5,281.1,010611,000.9,E*7C
$GPGGA,125644,4424.8152,N,00852.9664,E,1,05,2.1,4.0,M,48.2,M,,*44
$GPGSA,A,3,,,,15,17,,26,27,28,,,,4.0,2.1,1.6*3B
$GPGSV,3,1,11,05,13,191,00,08,13,073,00,09,30,277,00,15,68,299,40*7F
$GPGSV,3,2,11,17,26,114,42,18,20,313,00,26,68,128,44,27,50,287,37*7A
$GPGSV,3,3,11,28,44,052,46,33,33,214,42,37,33,213,43*44
$GPGLL,4424.8152,N,00852.9664,E,125644,A*20
$GPVTG,281,T,280,M,001.5,N,0002.7,K*7E
$GPRMC,125646,A,4424.8154,N,00852.9653,E,001.5,281.1,010611,000.9,E*7C
$GPGGA,125646,4424.8154,N,00852.9653,E,6,05,3.9,4.1,M,48.2,M,,*4B
$GPGSA,A,3,,,,15,17,,26,27,28,,,,5.5,3.9,1.0*30
$GPGSV,3,1,11,05,13,191,00,08,13,073,00,09,30,277,00,15,68,299,39*71
$GPGSV,3,2,11,17,26,114,45,18,20,313,00,26,68,128,44,27,50,287,00*79
$GPGSV,3,3,11,28,44,052,00,33,33,214,41,37,33,213,42*44
$GPGLL,4424.8154,N,00852.9653,E,125646,A*20
$GPVTG,281,T,280,M,001.5,N,0002.7,K*7E
$GPRMC,125648,A,4424.8155,N,00852.9642,E,001.5,281.1,010611,000.9,E*73
$GPGGA,125648,4424.8155,N,00852.9642,E,6,05,6.1,4.1,M,48.2,M,,*49
$GPGSA,A,3,,,,15,17,,26,27,28,,,,7.2,6.1,1.0*38
$GPGSV,3,1,11,05,13,191,00,08,13,073,00,09,30,277,00,15,68,299,39*71
$GPGSV,3,2,11,17,26,114,46,18,20,313,00,26,68,128,43,27,50,288,37*76
$GPGSV,3,3,11,28,44,052,00,33,33,214,42,37,33,213,44*41
$GPGLL,4424.8155,N,00852.9642,E,125648,A*2F
$GPVTG,281,T,280,M,001.5,N,0002.7,K*7E
$GPRMC,125650,A,4424.7824,N,00852.9429,E,001.4,287.0,010611,000.9,E*73
$GPGGA,125650,4424.7824,N,00852.9429,E,1,05,2.0,3.8,M,48.2,M,,*43
$GPGSA,A,3,,,,15,17,,26,27,28,,,,3.8,2.0,1.2*31
$GPGSV,3,1,11,05,13,191,00,08,13,073,00,09,30,277,00,15,68,299,39*71
$GPGSV,3,2,11,17,26,114,45,18,20,313,00,26,68,128,44,27,50,288,36*73
$GPGSV,3,3,11,28,44,052,44,33,33,214,42,37,33,213,45*40
$GPGLL,4424.7824,N,00852.9429,E,125650,A*29
$GPVTG,287,T,286,M,001.4,N,0002.6,K*7E
$GPRMC,125652,A,4424.7845,N,00852.9418,E,001.6,323.7,010611,000.9,E*7E
$GPGGA,125652,4424.7845,N,00852.9418,E,1,05,2.0,3.2,M,48.2,M,,*4E
$GPGSA,A,3,,,,15,17,,26,27,28,,,,3.8,2.0,1.7*34
$GPGSV,3,1,11,05,13,191,00,08,13,073,00,09,30,277,00,15,68,299,39*71
$GPGSV,3,2,11,17,26,114,45,18,20,313,00,26,68,128,44,27,50,288,36*73
$GPGSV,3,3,11,28,44,052,42,33,33,214,42,37,33,213,44*47
$GPGLL,4424.7845,N,00852.9418,E,125652,A*2E
$GPVTG,324,T,323,M,001.6,N,0002.9,K*75
$GPRMC,125654,A,4424.7899,N,00852.9406,E,001.6,324.8,010611,000.9,E*7E
$GPGGA,125654,4424.7899,N,00852.9406,E,1,05,2.7,2.3,M,48.2,M,,*41
$GPGSA,A,3,,,,15,17,,26,27,28,,,,5.1,2.7,1.4*3F
$GPGSV,3,1,11,05,13,191,00,08,13,073,00,09,30,277,00,15,68,299,39*71
$GPGSV,3,2,11,17,26,114,45,18,20,313,00,26,68,128,44,27,50,288,35*70
$GPGSV,3,3,11,28,44,052,40,33,33,214,42,37,33,213,00*45
$GPGLL,4424.7899,N,00852.9406,E,125654,A*26
$GPVTG,325,T,324,M,001.6,N,0002.9,K*73
$GPRMC,125656,A,4424.7833,N,00852.9362,E,001.7,323.0,010611,000.9,E*77
$GPGGA,125656,4424.7833,N,00852.9362,E,1,05,2.0,2.0,M,48.2,M,,*42
$GPGSA,A,3,,,,15,17,,26,27,28,,,,3.8,2.0,1.2*31
$GPGSV,3,1,11,05,13,191,00,08,13,073,00,09,30,277,00,15,68,299,38*70
$GPGSV,3,2,11,17,26,114,44,18,20,313,00,26,68,128,44,27,50,288,35*71
$GPGSV,3,3,11,28,44,052,36,33,33,214,42,37,33,213,00*44
$GPGLL,4424.7833,N,00852.9362,E,125656,A*21
$GPVTG,323,T,322,M,001.7,N,0003.1,K*7B
$GPRMC,125658,A,4424.7844,N,00852.9318,E,001.7,334.2,010611,000.9,E*70
$GPGGA,125658,4424.7844,N,00852.9318,E,1,05,2.1,0.5,M,48.2,M,,*47
$GPGSA,A,3,,,,15,17,,26,27,28,,,,4.1,2.1,1.9*35
$GPGSV,3,1,11,05,13,191,00,08,13,073,00,09,30,277,00,15,68,299,38*70
$GPGSV,3,2,11,17,26,114,43,18,20,313,00,26,68,128,44,27,50,288,00*70
$GPGSV,3,3,11,28,44,052,39,33,33,214,42,37,33,213,00*4B
$GPGLL,4424.7844,N,00852.9318,E,125658,A*22
$GPVTG,334,T,333,M,001.7,N,0003.2,K*7E
$GPRMC,125700,A,4424.7858,N,00852.9409,E,001.9,340.5,010611,000.9,E*7C
$GPGGA,125700,4424.7858,N,00852.9409,E,1,05,2.3,1.2,M,48.2,M,,*45
$GPGSA,A,3,,,,15,17,,26,27,28,,,,3.4,2.3,1.0*3C
$GPGSV,3,1,11,05,13,191,00,08,13,073,00,09,30,277,00,15,68,299,37*7F
$GPGSV,3,2,11,17,26,114,43,18,20,313,00,26,68,128,44,27,50,288,00*70
$GPGSV,3,3,11,28,44,052,41,33,33,214,41,37,33,213,00*47
$GPGLL,4424.7858,N,00852.9409,E,125700,A*24
$GPVTG,340,T,340,M,001.9,N,0003.4,K*71
$GPRMC,125702,A,4424.7871,N,00852.9436,E,001.9,336.7,010611,000.9,E*7A
$GPGGA,125702,4424.7871,N,00852.9436,E,1,05,2.5,1.7,M,48.2,M,,*43
$GPGSA,A,3,,,,15,17,,26,27,28,,,,3.4,2.5,1.0*3A
$GPGSV,3,1,11,05,13,191,00,08,13,073,00,09,30,277,00,15,68,299,36*7E
$GPGSV,3,2,11,17,26,114,46,18,20,313,00,26,68,128,44,27,50,288,00*75
$GPGSV,3,3,11,28,44,052,39,33,33,214,36,37,33,213,00*48
$GPGLL,4424.7871,N,00852.9436,E,125702,A*21
$GPVTG,337,T,336,M,001.9,N,0003.6,K*72
$GPRMC,125704,A,4424.7881,N,00852.9439,E,001.8,338.6,010611,000.9,E*72
$GPGGA,125704,4424.7881,N,00852.9439,E,6,05,3.5,2.0,M,48.2,M,,*47
$GPGSA,A,3,,,,15,17,,26,27,28,,,,4.2,3.5,1.0*3A
$GPGSV,3,1,11,05,13,191,00,08,13,073,00,09,30,277,00,15,68,299,30*78
$GPGSV,3,2,11,17,26,114,45,18,20,313,00,26,68,128,44,27,50,288,00*76
$GPGSV,3,3,11,28,44,052,38,33,33,214,40,37,33,213,00*48
$GPGLL,4424.7881,N,00852.9439,E,125704,A*27
$GPVTG,339,T,338,M,001.8,N,0003.4,K*71
$GPRMC,125706,A,4424.7934,N,00852.9455,E,001.6,336.9,010611,000.9,E*7A
$GPGGA,125706,4424.7934,N,00852.9455,E,6,05,3.5,2.2,M,48.2,M,,*42
$GPGSA,A,3,05,,,15,17,,26,,28,,,,3.7,3.5,1.0*38
$GPGSV,3,1,11,05,13,191,37,08,13,073,00,09,30,277,00,15,68,299,00*7F
$GPGSV,3,2,11,17,26,114,42,18,20,313,00,26,68,128,41,27,50,288,00*74
$GPGSV,3,3,11,28,44,052,00,33,33,214,39,37,33,213,00*4D
$GPGLL,4424.7934,N,00852.9455,E,125706,A*20
$GPVTG,337,T,336,M,001.6,N,0002.9,K*73
$GPRMC,125708,A,4424.7942,N,00852.9450,E,001.6,336.9,010611,000.9,E*70
$GPGGA,125708,4424.7942,N,00852.9450,E,6,04,3.5,2.4,M,48.2,M,,*4F
$GPGSA,A,3,05,,,,17,,26,,28,,,,3.7,3.5,1.0*3C
$GPGSV,3,1,11,05,13,191,35,08,13,073,00,09,30,277,00,15,68,299,00*7D
$GPGSV,3,2,11,17,26,114,42,18,20,313,00,26,68,128,39,27,50,288,00*7B
$GPGSV,3,3,11,28,44,052,00,33,33,214,40,37,33,213,00*43
$GPGLL,4424.7942,N,00852.9450,E,125708,A*2A
$GPVTG,337,T,336,M,001.6,N,0002.9,K*73
$GPRMC,125710,A,4424.7950,N,00852.9445,E,001.6,336.9,010611,000.9,E*7E
$GPGGA,125710,4424.7950,N,00852.9445,E,6,04,3.5,2.4,M,48.2,M,,*41
$GPGSA,A,3,05,,,,17,,26,,28,,,,3.7,3.5,1.0*3C
$GPGSV,3,1,11,05,13,191,35,08,13,073,00,09,30,277,00,15,68,299,00*7D
$GPGSV,3,2,11,17,26,114,40,18,20,313,00,26,68,128,37,27,50,288,00*77
$GPGSV,3,3,11,28,44,052,00,33,33,214,40,37,33,213,00*43
$GPGLL,4424.7950,N,00852.9445,E,125710,A*24
$GPVTG,337,T,336,M,001.6,N,0002.9,K*73
$GPRMC,125712,A,4424.7958,N,00852.9440,E,001.6,336.9,010611,000.9,E*71
$GPGGA,125712,4424.7958,N,00852.9440,E,6,04,3.5,2.5,M,48.2,M,,*4F
$GPGSA,A,3,05,,,,17,,26,,28,,,,3.7,3.5,1.0*3C
$GPGSV,3,1,11,05,13,191,36,08,13,073,00,09,30,277,00,15,68,299,00*7E
$GPGSV,3,2,11,17,26,114,39,18,20,313,00,26,68,128,36,27,50,288,00*78
$GPGSV,3,3,11,28,44,052,00,33,33,214,00,37,33,213,00*47
$GPGLL,4424.7958,N,00852.9440,E,125712,A*2B
$GPVTG,337,T,336,M,001.6,N,0002.9,K*73
$GPRMC,125714,A,4424.7966,N,00852.9436,E,001.6,336.9,010611,000.9,E*7B
$GPGGA,125714,4424.7966,N,00852.9436,E,6,03,3.5,2.5,M,48.2,M,,*42
$GPGSA,A,3,05,,,,17,,26,,,,,,3.7,3.5,1.0*36
$GPGSV,3,1,11,05,13,191,35,08,13,073,00,09,30,277,00,15,68,299,00*7D
$GPGSV,3,2,11,17,26,114,38,18,20,313,00,26,68,128,35,27,50,288,00*7A
$GPGSV,3,3,11,28,44,052,00,33,33,214,00,37,33,213,00*47
$GPGLL,4424.7966,N,00852.9436,E,125714,A*21
$GPVTG,337,T,336,M,001.6,N,0002.9,K*73
$GPRMC,125716,A,4424.7974,N,00852.9431,E,001.6,336.9,010611,000.9,E*7D
$GPGGA,125716,4424.7974,N,00852.9431,E,6,00,3.5,2.5,M,48.2,M,,*47
$GPGSA,A,3,,,,,,,,,,,,,3.7,3.5,1.0*31
$GPGSV,3,1,11,05,13,191,34,08,13,073,00,09,30,277,00,15,68,299,00*7C
$GPGSV,3,2,11,17,26,114,00,18,20,313,00,26,68,128,00,27,50,288,00*77
$GPGSV,3,3,11,28,44,052,00,33,33,214,00,37,33,213,00*47
$GPGLL,4424.7974,N,00852.9431,E,125716,A*27
$GPVTG,337,T,336,M,001.6,N,0002.9,K*73
$GPRMC,125718,A,4424.7982,N,00852.9426,E,001.6,336.9,010611,000.9,E*7C
$GPGGA,125718,4424.7982,N,00852.9426,E,6,00,3.5,2.6,M,48.2,M,,*45
$GPGSA,A,3,,,,,,,,,,,,,3.7,3.5,1.0*31
$GPGSV,3,1,11,05,13,191,34,08,13,073,00,09,30,277,00,15,68,299,00*7C
$GPGSV,3,2,11,17,26,114,00,18,20,313,00,26,68,128,00,27,50,288,00*77
$GPGSV,3,3,11,28,44,052,00,33,33,214,00,37,33,213,00*47
$GPGLL,4424.7982,N,00852.9426,E,125718,A*26
$GPVTG,337,T,336,M,001.6,N,0002.9,K*73
$GPRMC,125720,A,4424.7990,N,00852.9421,E,001.6,336.9,010611,000.9,E*73
$GPGGA,125720,4424.7990,N,00852.9421,E,6,00,3.5,2.6,M,48.2,M,,*4A
$GPGSA,A,3,,,,,,,,,,,,,3.7,3.5,1.0*31
$GPGSV,3,1,11,05,13,191,00,08,13,073,00,09,30,277,00,15,68,299,00*7B
$GPGSV,3,2,11,17,26,114,00,18,20,313,00,26,68,128,00,27,50,288,00*77
$GPGSV,3,3,11,28,44,052,00,33,33,214,00,37,33,213,00*47
$GPGLL,4424.7990,N,00852.9421,E,125720,A*29
$GPVTG,337,T,336,M,001.6,N,0002.9,K*73
$GPRMC,125722,A,4424.7998,N,00852.9417,E,001.6,336.9,010611,000.9,E*7C
$GPGGA,125722,4424.7998,N,00852.9417,E,6,00,3.5,2.6,M,48.2,M,,*45
$GPGSA,A,3,,,,,,,,,,,,,3.7,3.5,1.0*31
$GPGSV,3,1,11,05,13,191,00,08,13,073,00,09,30,277,00,15,68,299,00*7B
$GPGSV,3,2,11,17,26,114,00,18,20,313,00,26,68,128,00,27,50,288,00*77
$GPGSV,3,3,11,28,44,052,00,33,33,214,00,37,33,213,00*47
$GPGLL,4424.7998,N,00852.9417,E,125722,A*26
$GPVTG,337,T,336,M,001.6,N,0002.9,K*73
$GPRMC,125724,A,4424.8006,N,00852.9412,E,001.6,336.9,010611,000.9,E*7E
$GPGGA,125724,4424.8006,N,00852.9412,E,6,00,3.5,2.6,M,48.2,M,,*47
$GPGSA,A,3,,,,,,,,,,,,,3.7,3.5,1.0*31
$GPGSV,3,1,11,05,12,191,00,08,13,073,00,09,30,277,00,15,68,299,00*7A
$GPGSV,3,2,11,17,26,114,00,18,20,313,00,26,68,128,00,27,50,288,00*77
$GPGSV,3,3,11,28,44,052,00,33,33,214,00,37,33,213,00*47
$GPGLL,4424.8006,N,00852.9412,E,125724,A*24
$GPVTG,337,T,336,M,001.6,N,0002.9,K*73
$GPRMC,125726,A,4424.8014,N,00852.9407,E,001.6,336.9,010611,000.9,E*7B
$GPGGA,125726,4424.8014,N,00852.9407,E,6,00,3.5,2.6,M,48.2,M,,*42
$GPGSA,A,3,,,,,,,,,,,,,3.7,3.5,1.0*31
$GPGSV,3,1,11,05,12,191,00,08,13,073,00,09,30,277,00,15,68,299,00*7A
$GPGSV,3,2,11,17,26,114,00,18,20,313,45,26,68,128,00,27,50,288,00*76
$GPGSV,3,3,11,28,44,052,00,33,33,214,00,37,33,213,00*47
$GPGLL,4424.8014,N,00852.9407,E,125726,A*21
$GPVTG,337,T,336,M,001.6,N,0002.9,K*73
$GPRMC,125728,A,4424.8065,N,00852.9370,E,001.5,336.7,010611,000.9,E*79
$GPGGA,125728,4424.8065,N,00852.9370,E,1,04,3.6,2.6,M,48.2,M,,*4D
$GPGSA,A,3,,,09,15,,18,,27,,,,,3.7,3.6,1.0*33
$GPGSV,3,1,11,05,12,191,00,08,13,073,00,09,30,277,46,15,68,299,42*7E
$GPGSV,3,2,11,17,26,114,00,18,20,313,44,26,68,128,00,27,50,288,44*77
$GPGSV,3,3,11,28,44,052,00,33,33,214,00,37,33,213,00*47
$GPGLL,4424.8065,N,00852.9370,E,125728,A*2E
$GPVTG,337,T,336,M,001.5,N,0002.7,K*7E
$GPRMC,125730,A,4424.8091,N,00852.9373,E,001.4,336.3,010611,000.9,E*7D
$GPGGA,125730,4424.8091,N,00852.9373,E,6,04,6.4,2.7,M,48.2,M,,*4D
$GPGSA,A,3,,,09,15,,18,,27,,,,,6.6,6.4,1.0*30
$GPGSV,3,1,11,05,12,191,00,08,13,073,00,09,30,277,44,15,68,299,42*7C
$GPGSV,3,2,11,17,26,114,00,18,20,313,00,26,68,128,00,27,50,288,42*71
$GPGSV,3,3,11,28,44,052,30,33,33,214,00,37,33,213,00*44
$GPGLL,4424.8091,N,00852.9373,E,125730,A*2F
$GPVTG,336,T,335,M,001.4,N,0002.7,K*7D
$GPRMC,125732,A,4424.8098,N,00852.9369,E,001.4,336.3,010611,000.9,E*7D
$GPGGA,125732,4424.8098,N,00852.9369,E,6,04,10.1,2.7,M,48.2,M,,*7F
$GPGSA,A,3,,,09,15,,18,,27,,,,,10.3,10.1,1.0*30
$GPGSV,3,1,11,05,12,191,00,08,13,073,00,09,30,277,43,15,68,299,40*79
$GPGSV,3,2,11,17,26,114,00,18,20,313,00,26,68,128,00,27,50,288,40*73
$GPGSV,3,3,11,28,44,052,33,33,33,214,00,37,33,213,00*47
$GPGLL,4424.8098,N,00852.9369,E,125732,A*2F
$GPVTG,336,T,335,M,001.4,N,0002.7,K*7D
$GPRMC,125734,A,4424.8112,N,00852.9375,E,001.5,333.1,010611,000.9,E*73
$GPGGA,125734,4424.8112,N,00852.9375,E,1,05,2.9,,M,48.2,M,,*61
$GPGSA,A,2,,,09,15,,18,,27,28,,,,3.1,2.9,*1F
$GPGSV,3,1,11,05,12,191,00,08,13,073,00,09,30,277,45,15,68,299,39*71
$GPGSV,3,2,11,17,26,114,00,18,20,313,40,26,68,128,00,27,50,288,39*79
$GPGSV,3,3,11,28,44,052,34,33,33,214,00,37,33,213,00*40
$GPGLL,4424.8112,N,00852.9375,E,125734,A*27
$GPVTG,333,T,332,M,001.5,N,0002.7,K*7E
$GPRMC,125736,A,4424.8133,N,00852.9383,E,000.7,333.1,010611,000.9,E*78
$GPGGA,125736,4424.8133,N,00852.9383,E,1,05,3.6,2.6,M,48.2,M,,*4D
$GPGSA,A,3,,,09,15,,18,,27,28,,,,3.7,3.6,1.0*39
$GPGSV,3,1,11,05,12,191,00,08,12,074,00,09,30,277,44,15,68,299,41*79
$GPGSV,3,2,11,17,26,114,00,18,20,313,41,26,68,128,00,27,50,288,43*75
$GPGSV,3,3,11,28,44,052,42,33,33,214,00,37,33,213,00*41
$GPGLL,4424.8133,N,00852.9383,E,125736,A*2F
$GPVTG,333,T,332,M,000.7,N,0001.3,K*7A
$GPRMC,125738,A,4424.8143,N,00852.9397,E,001.0,090.9,010611,000.9,E*70
$GPGGA,125738,4424.8143,N,00852.9397,E,1,05,3.6,2.4,M,48.2,M,,*43
$GPGSA,A,3,,,09,15,,18,,27,28,,,,4.0,3.6,1.5*3C
$GPGSV,3,1,11,05,12,191,00,08,12,074,00,09,30,277,43,15,68,299,43*7C
$GPGSV,3,2,11,17,26,114,00,18,20,313,40,26,68,128,00,27,50,288,44*73
$GPGSV,3,3,11,28,44,052,41,33,33,214,00,37,33,213,00*42
$GPGLL,4424.8143,N,00852.9397,E,125738,A*23
$GPVTG,091,T,090,M,001.0,N,0001.8,K*77
$GPRMC,125740,A,4424.8155,N,00852.9409,E,001.1,090.9,010611,000.9,E*79
$GPGGA,125740,4424.8155,N,00852.9409,E,1,05,3.7,2.9,M,48.2,M,,*47
$GPGSA,A,3,,,09,15,,18,,27,28,,,,4.3,3.7,1.9*32
$GPGSV,3,1,11,05,12,191,00,08,12,074,00,09,31,277,44,15,68,299,44*7D
$GPGSV,3,2,11,17,26,114,00,18,20,313,40,26,68,128,00,27,50,288,45*72
$GPGSV,3,3,11,28,44,052,41,33,33,214,00,37,33,213,00*42
$GPGLL,4424.8155,N,00852.9409,E,125740,A*2B
$GPVTG,091,T,090,M,001.1,N,0002.1,K*7C
$GPRMC,125742,A,4424.8167,N,00852.9423,E,001.2,058.8,010611,000.9,E*74
$GPGGA,125742,4424.8167,N,00852.9423,E,1,05,3.6,3.8,M,48.2,M,,*4D
$GPGSA,A,3,,,09,15,,18,,27,28,,,,3.7,3.6,1.0*39
$GPGSV,3,1,11,05,12,191,00,08,12,074,00,09,31,277,44,15,68,299,44*7D
$GPGSV,3,2,11,17,26,114,00,18,20,313,41,26,68,128,00,27,50,288,44*72
$GPGSV,3,3,11,28,44,052,41,33,33,214,00,37,33,213,00*42
$GPGLL,4424.8167,N,00852.9423,E,125742,A*20
$GPVTG,059,T,058,M,001.2,N,0002.3,K*7D
$GPRMC,125744,A,4424.8177,N,00852.9434,E,001.5,054.4,010611,000.9,E*72
$GPGGA,125744,4424.8177,N,00852.9434,E,1,05,3.6,4.6,M,48.2,M,,*45
$GPGSA,A,3,,,09,15,,18,,27,28,,,,3.9,3.6,1.3*34
$GPGSV,3,1,11,05,12,191,00,08,12,074,00,09,31,277,44,15,68,299,44*7D
$GPGSV,3,2,11,17,26,114,00,18,20,313,42,26,68,128,00,27,50,288,45*70
$GPGSV,3,3,11,28,44,052,43,33,33,214,00,37,33,213,00*40
$GPGLL,4424.8177,N,00852.9434,E,125744,A*21
$GPVTG,054,T,054,M,001.5,N,0002.7,K*7F
$GPRMC,125746,A,4424.8184,N,00852.9446,E,001.7,057.9,010611,000.9,E*75
$GPGGA,125746,4424.8184,N,00852.9446,E,1,05,3.6,5.2,M,48.2,M,,*4B
$GPGSA,A,3,,,09,15,,18,,27,28,,,,3.9,3.6,1.3*34
$GPGSV,3,1,11,05,12,191,00,08,12,074,00,09,31,277,44,15,68,299,44*7D
$GPGSV,3,2,11,17,26,114,00,18,20,313,43,26,68,128,00,27,50,288,45*71
$GPGSV,3,3,11,28,44,052,43,33,33,214,00,37,33,213,00*40
$GPGLL,4424.8184,N,00852.9446,E,125746,A*2A
$GPVTG,058,T,057,M,001.7,N,0003.1,K*75
$GPRMC,125748,A,4424.8197,N,00852.9462,E,001.7,055.1,010611,000.9,E*75
$GPGGA,125748,4424.8197,N,00852.9462,E,1,05,3.6,5.8,M,48.2,M,,*4B
$GPGSA,A,3,,,09,15,,18,,27,28,,,,3.9,3.6,1.3*34
$GPGSV,3,1,11,05,12,191,00,08,12,074,00,09,31,277,45,15,68,299,43*7B
$GPGSV,3,2,11,17,26,114,00,18,20,313,43,26,68,128,00,27,50,288,46*72
$GPGSV,3,3,11,28,44,052,42,33,33,214,00,37,33,213,00*41
$GPGLL,4424.8197,N,00852.9462,E,125748,A*20
$GPVTG,055,T,054,M,001.7,N,0003.1,K*7B
$GPRMC,125750,A,4424.8202,N,00852.9473,E,001.7,055.1,010611,000.9,E*73
$GPGGA,125750,4424.8202,N,00852.9473,E,6,05,7.9,5.8,M,48.2,M,,*41
$GPGSA,A,3,,,09,15,,18,,27,28,,,,8.1,7.9,1.0*3F
$GPGSV,3,1,11,05,12,191,00,08,12,074,00,09,31,277,46,15,68,299,43*78
$GPGSV,3,2,11,17,26,114,00,18,20,313,42,26,68,128,00,27,50,288,46*73
$GPGSV,3,3,11,28,44,052,41,33,33,214,00,37,33,213,00*42
$GPGLL,4424.8202,N,00852.9473,E,125750,A*26
$GPVTG,055,T,054,M,001.7,N,0003.1,K*7B
$GPRMC,125752,A,4424.8216,N,00852.9487,E,001.7,053.1,010611,000.9,E*79
$GPGGA,125752,4424.8216,N,00852.9487,E,1,05,3.9,6.4,M,48.2,M,,*41
$GPGSA,A,3,,,09,15,,18,,27,28,,,,5.4,3.9,1.5*36
$GPGSV,3,1,11,05,12,191,00,08,12,074,00,09,31,277,47,15,68,299,43*79
$GPGSV,3,2,11,17,26,114,00,18,20,313,39,26,68,128,00,27,50,288,46*7F
$GPGSV,3,3,11,28,44,052,41,33,33,214,00,37,33,213,00*42
$GPGLL,4424.8216,N,00852.9487,E,125752,A*2A
$GPVTG,053,T,052,M,001.7,N,0003.2,K*78
$GPRMC,125754,A,4424.8231,N,00852.9504,E,002.0,061.1,010611,000.9,E*75
$GPGGA,125754,4424.8231,N,00852.9504,E,1,05,4.2,7.0,M,48.2,M,,*41
$GPGSA,A,3,,,09,15,,18,,27,28,,,,5.5,4.2,1.0*3E
$GPGSV,3,1,11,05,12,191,00,08,12,074,00,09,31,277,47,15,68,299,43*79
$GPGSV,3,2,11,17,26,114,00,18,20,313,39,26,68,128,00,27,50,288,45*7C
$GPGSV,3,3,11,28,44,052,40,33,33,214,00,37,33,213,00*43
$GPGLL,4424.8231,N,00852.9504,E,125754,A*23
$GPVTG,061,T,060,M,002.0,N,0003.7,K*79
$GPRMC,125756,A,4424.8244,N,00852.9522,E,002.0,067.8,010611,000.9,E*7E
$GPGGA,125756,4424.8244,N,00852.9522,E,1,05,3.9,7.5,M,48.2,M,,*4C
$GPGSA,A,3,,,09,15,,18,,27,28,,,,5.4,3.9,1.5*36
$GPGSV,3,1,11,05,12,191,00,08,12,074,00,09,31,277,46,15,68,299,44*7F
$GPGSV,3,2,11,17,26,114,00,18,20,313,39,26,68,128,00,27,50,288,45*7C
$GPGSV,3,3,11,28,44,052,41,33,33,214,00,37,33,213,00*42
$GPGLL,4424.8244,N,00852.9522,E,125756,A*27
$GPVTG,068,T,067,M,002.0,N,0003.7,K*77
$GPRMC,125758,A,4424.8256,N,00852.9539,E,002.0,057.2,010611,000.9,E*70
$GPGGA,125758,4424.8256,N,00852.9539,E,1,05,3.9,7.7,M,48.2,M,,*49
$GPGSA,A,3,,,09,15,,18,,27,28,,,,5.4,3.9,1.7*34
$GPGSV,3,1,11,05,12,191,00,08,12,074,00,09,31,277,46,15,68,299,44*7F
$GPGSV,3,2,11,17,26,114,00,18,20,313,40,26,68,128,00,27,50,288,46*71
$GPGSV,3,3,11,28,44,052,40,33,33,214,00,37,33,213,00*43
$GPGLL,4424.8256,N,00852.9539,E,125758,A*20
$GPVTG,057,T,056,M,002.0,N,0003.6,K*78
$GPRMC,125800,A,4424.8269,N,00852.9555,E,002.1,055.8,010611,000.9,E*7D
$GPGGA,125800,4424.8269,N,00852.9555,E,1,05,3.6,8.1,M,48.2,M,,*4B
$GPGSA,A,3,,,09,15,,18,,27,28,,,,3.9,3.6,1.3*34
$GPGSV,3,1,11,05,12,191,00,08,12,074,00,09,31,277,47,15,68,299,44*7E
$GPGSV,3,2,11,17,26,114,00,18,20,313,43,26,68,128,00,27,50,288,45*71
$GPGSV,3,3,11,28,44,052,40,33,33,214,00,37,33,213,00*43
$GPGLL,4424.8269,N,00852.9555,E,125800,A*24
$GPVTG,056,T,055,M,002.1,N,0003.9,K*74
$GPRMC,125802,A,4424.8281,N,00852.9570,E,001.7,060.2,010611,000.9,E*77
$GPGGA,125802,4424.8281,N,00852.9570,E,1,05,3.6,8.5,M,48.2,M,,*4C
$GPGSA,A,3,,,09,15,,18,,27,28,,,,3.9,3.6,1.3*34
$GPGSV,3,1,11,05,12,191,00,08,12,074,00,09,31,277,46,15,69,298,44*7F
$GPGSV,3,2,11,17,26,114,00,18,20,313,44,26,68,128,00,27,50,288,45*76
$GPGSV,3,3,11,28,44,052,40,33,33,214,00,37,33,213,00*43
$GPGLL,4424.8281,N,00852.9570,E,125802,A*27
$GPVTG,060,T,059,M,001.7,N,0003.2,K*73
$GPRMC,125804,A,4424.8294,N,00852.9583,E,001.8,049.5,010611,000.9,E*7A
$GPGGA,125804,4424.8294,N,00852.9583,E,1,05,3.6,9.2,M,48.2,M,,*44
$GPGSA,A,3,,,09,15,,18,,27,28,,,,3.7,3.6,1.0*39
$GPGSV,3,1,11,05,12,191,00,08,12,074,00,09,31,277,47,15,69,298,44*7E
$GPGSV,3,2,11,17,26,114,00,18,20,313,44,26,68,128,00,27,50,288,45*76
$GPGSV,3,3,11,28,44,052,41,33,33,214,00,37,33,213,00*42
$GPGLL,4424.8294,N,00852.9583,E,125804,A*29
$GPVTG,050,T,049,M,001.8,N,0003.4,K*78
$GPRMC,125806,A,4424.8304,N,00852.9599,E,002.2,056.7,010611,000.9,E*7E
$GPGGA,125806,4424.8304,N,00852.9599,E,1,06,3.6,9.1,M,48.2,M,,*45
$GPGSA,A,3,,,09,15,17,18,,27,28,,,,3.9,3.6,1.3*32
$GPGSV,3,1,11,05,12,191,00,08,12,074,00,09,31,277,47,15,69,298,43*79
$GPGSV,3,2,11,17,26,114,36,18,20,313,45,26,68,128,00,27,50,288,46*71
$GPGSV,3,3,11,28,44,052,40,33,33,214,00,37,33,213,00*43
$GPGLL,4424.8304,N,00852.9599,E,125806,A*28
$GPVTG,057,T,056,M,002.2,N,0004.0,K*7B
$GPRMC,125808,A,4424.8318,N,00852.9614,E,002.2,054.6,010611,000.9,E*78
$GPGGA,125808,4424.8318,N,00852.9614,E,1,06,3.6,9.7,M,48.2,M,,*46
$GPGSA,A,3,,,09,15,17,18,,27,28,,,,3.9,3.6,1.3*32
$GPGSV,3,1,11,05,12,191,00,08,12,074,00,09,31,277,47,15,69,298,44*7E
$GPGSV,3,2,11,17,26,114,00,18,20,313,44,26,68,128,00,27,50,288,46*75
$GPGSV,3,3,11,28,44,052,39,33,33,214,00,37,33,213,00*4D
$GPGLL,4424.8318,N,00852.9614,E,125808,A*2D
$GPVTG,055,T,054,M,002.2,N,0004.1,K*7A
$GPRMC,125810,A,4424.8334,N,00852.9627,E,002.1,059.1,010611,000.9,E*76
$GPGGA,125810,4424.8334,N,00852.9627,E,1,06,3.7,10.4,M,48.2,M,,*7B
$GPGSA,A,3,,,09,15,17,18,,27,28,,,,4.2,3.7,1.7*3B
$GPGSV,3,1,11,05,12,191,00,08,12,074,00,09,31,277,47,15,69,298,43*79
$GPGSV,3,2,11,17,27,113,00,18,20,313,42,26,68,128,00,27,50,288,46*75
$GPGSV,3,3,11,28,44,052,40,33,33,214,00,37,33,213,00*43
$GPGLL,4424.8334,N,00852.9627,E,125810,A*2A
$GPVTG,059,T,058,M,002.1,N,0003.9,K*76
$GPRMC,125812,A,4424.8349,N,00852.9641,E,002.0,049.7,010611,000.9,E*78
$GPGGA,125812,4424.8349,N,00852.9641,E,1,06,3.7,10.9,M,48.2,M,,*7E
$GPGSA,A,3,,,09,15,17,18,,27,28,,,,4.4,3.7,2.1*38
$GPGSV,3,1,11,05,12,191,00,08,12,074,00,09,31,277,46,15,69,298,43*78
$GPGSV,3,2,11,17,27,113,00,18,20,313,42,26,68,128,00,27,50,288,47*74
$GPGSV,3,3,11,28,44,052,41,33,33,214,00,37,33,213,00*42
$GPGLL,4424.8349,N,00852.9641,E,125812,A*22
$GPVTG,050,T,049,M,002.0,N,0003.8,K*7F
$GPRMC,125814,A,4424.8361,N,00852.9654,E,002.0,048.9,010611,000.9,E*7F
$GPGGA,125814,4424.8361,N,00852.9654,E,1,06,3.8,11.4,M,48.2,M,,*75
$GPGSA,A,3,,,09,15,17,18,,27,28,,,,4.5,3.8,2.3*34
$GPGSV,3,1,11,05,12,191,00,08,12,074,00,09,31,277,47,15,69,298,44*7E
$GPGSV,3,2,11,17,27,113,00,18,20,312,41,26,68,128,00,27,50,288,46*77
$GPGSV,3,3,11,28,44,052,39,33,33,214,00,37,33,213,00*4D
$GPGLL,4424.8361,N,00852.9654,E,125814,A*2A
$GPVTG,049,T,048,M,002.0,N,0003.7,K*79
$GPRMC,125816,A,4424.8372,N,00852.9667,E,002.1,047.1,010611,000.9,E*79
$GPGGA,125816,4424.8372,N,00852.9667,E,6,05,6.3,11.7,M,48.2,M,,*7C
$GPGSA,A,3,,,09,15,,18,,27,28,,,,7.0,6.3,1.0*3A
$GPGSV,3,1,11,05,12,191,00,08,12,074,00,09,31,277,47,15,69,298,44*7E
$GPGSV,3,2,11,17,27,113,00,18,20,312,00,26,68,128,00,27,50,288,46*72
$GPGSV,3,3,11,28,44,052,38,33,33,214,00,37,33,213,00*4C
$GPGLL,4424.8372,N,00852.9667,E,125816,A*2A
$GPVTG,047,T,046,M,002.1,N,0004.0,K*78
$GPRMC,125818,A,4424.8382,N,00852.9679,E,001.7,045.1,010611,000.9,E*70
$GPGGA,125818,4424.8382,N,00852.9679,E,1,05,3.6,12.1,M,48.2,M,,*70
$GPGSA,A,3,,,09,15,,18,,27,28,,,,3.7,3.6,1.0*39
$GPGSV,3,1,11,05,12,191,00,08,12,074,00,09,31,277,47,15,69,298,44*7E
$GPGSV,3,2,11,17,27,113,00,18,20,312,44,26,68,128,00,27,50,288,45*71
$GPGSV,3,3,11,28,44,052,37,33,33,214,00,37,33,213,00*43
$GPGLL,4424.8382,N,00852.9679,E,125818,A*24
$GPVTG,045,T,044,M,001.7,N,0003.1,K*7B
$GPRMC,125820,A,4424.8390,N,00852.9691,E,001.7,042.5,010611,000.9,E*7D
$GPGGA,125820,4424.8390,N,00852.9691,E,6,05,5.4,12.1,M,48.2,M,,*7D
$GPGSA,A,3,,,09,15,,18,,27,28,,,,5.5,5.4,1.0*39
$GPGSV,3,1,11,05,12,191,00,08,12,074,00,09,31,277,44,15,69,298,43*7A
$GPGSV,3,2,11,17,27,113,00,18,20,312,43,26,68,128,00,27,50,288,42*71
$GPGSV,3,3,11,28,44,052,36,33,33,214,00,37,33,213,00*42
$GPGLL,4424.8390,N,00852.9691,E,125820,A*2A
$GPVTG,043,T,042,M,001.7,N,0003.2,K*78
$GPRMC,125822,A,4424.8398,N,00852.9703,E,001.7,042.1,010611,000.9,E*79
$GPGGA,125822,4424.8398,N,00852.9703,E,1,05,6.4,12.2,M,48.2,M,,*7A
$GPGSA,A,3,,,09,15,,18,,27,28,,,,6.6,6.4,1.0*3A
$GPGSV,3,1,11,05,12,191,00,08,12,074,00,09,31,277,00,15,69,298,42*7B
$GPGSV,3,2,11,17,27,113,00,18,20,312,41,26,68,128,00,27,50,288,42*73
$GPGSV,3,3,11,28,44,052,36,33,33,214,00,37,33,213,00*42
$GPGLL,4424.8398,N,00852.9703,E,125822,A*2A
$GPVTG,042,T,041,M,001.7,N,0003.1,K*79
$GPRMC,125824,A,4424.8408,N,00852.9711,E,001.9,348.5,010611,000.9,E*71
$GPGGA,125824,4424.8408,N,00852.9711,E,1,05,4.3,11.9,M,48.2,M,,*7C
$GPGSA,A,3,,,09,15,,18,,27,28,,,,5.6,4.3,1.0*3C
$GPGSV,3,1,11,05,12,191,00,08,12,074,00,09,31,277,37,15,69,298,42*7F
$GPGSV,3,2,11,17,27,113,00,18,20,312,42,26,68,128,00,27,50,288,44*76
$GPGSV,3,3,11,28,44,052,35,33,33,214,40,37,33,213,00*45
$GPGLL,4424.8408,N,00852.9711,E,125824,A*21
$GPVTG,348,T,348,M,001.9,N,0003.6,K*73
$GPRMC,125826,A,4424.8418,N,00852.9708,E,001.9,348.5,010611,000.9,E*7A
$GPGGA,125826,4424.8418,N,00852.9708,E,6,05,7.5,11.9,M,48.2,M,,*75
$GPGSA,A,3,,,09,15,,18,,27,28,,,,8.6,7.5,1.0*34
$GPGSV,3,1,11,05,12,191,00,08,12,074,00,09,31,277,43,15,69,298,43*7D
$GPGSV,3,2,11,17,27,113,00,18,20,312,41,26,68,128,00,27,50,288,45*74
$GPGSV,3,3,11,28,44,052,00,33,33,214,41,37,33,213,00*42
$GPGLL,4424.8418,N,00852.9708,E,125826,A*2A
$GPVTG,348,T,348,M,001.9,N,0003.6,K*73
$GPRMC,125828,A,4424.8429,N,00852.9706,E,001.9,349.1,010611,000.9,E*7D
$GPGGA,125828,4424.8429,N,00852.9706,E,1,06,2.3,11.8,M,48.2,M,,*71
$GPGSA,A,3,,,09,15,,18,26,27,28,,,,3.9,2.3,1.2*35
$GPGSV,3,1,11,05,12,191,00,08,12,074,00,09,31,277,45,15,69,298,42*7A
$GPGSV,3,2,11,17,27,113,00,18,20,312,41,26,68,128,32,27,50,288,45*75
$GPGSV,3,3,11,28,44,052,36,33,33,214,40,37,33,213,00*46
$GPGLL,4424.8429,N,00852.9706,E,125828,A*28
$GPVTG,349,T,348,M,001.9,N,0003.5,K*71
$GPRMC,125830,A,4424.8444,N,00852.9712,E,001.9,352.7,010611,000.9,E*76
$GPGGA,125830,4424.8444,N,00852.9712,E,1,06,3.5,11.9,M,48.2,M,,*70
$GPGSA,A,3,,,09,15,,18,26,27,28,,,,3.7,3.5,1.0*3E
$GPGSV,3,1,11,05,12,191,00,08,12,074,00,09,31,277,42,15,69,298,41*7E
$GPGSV,3,2,11,17,27,113,00,18,20,312,42,26,68,128,33,27,50,288,43*71
$GPGSV,3,3,11,28,44,052,00,33,33,214,00,37,33,213,00*47
$GPGLL,4424.8444,N,00852.9712,E,125830,A*2F
$GPVTG,353,T,352,M,001.9,N,0003.5,K*71
$GPRMC,125832,A,4424.8457,N,00852.9713,E,001.9,351.9,010611,000.9,E*7A
$GPGGA,125832,4424.8457,N,00852.9713,E,6,06,5.4,11.9,M,48.2,M,,*71
$GPGSA,A,3,,,09,15,,18,26,27,28,,,,5.5,5.4,1.0*3D
$GPGSV,3,1,11,05,12,191,00,08,12,074,00,09,31,277,43,15,69,298,42*7C
$GPGSV,3,2,11,17,27,113,00,18,20,312,41,26,68,128,32,27,50,288,42*72
$GPGSV,3,3,11,28,44,052,00,33,33,214,00,37,33,213,00*47
$GPGLL,4424.8457,N,00852.9713,E,125832,A*2E
$GPVTG,352,T,351,M,001.9,N,0003.5,K*73
$GPRMC,125834,A,4424.8472,N,00852.9711,E,001.9,355.8,010611,000.9,E*7C
$GPGGA,125834,4424.8472,N,00852.9711,E,1,06,3.6,12.3,M,48.2,M,,*78
$GPGSA,A,3,,,09,15,,18,26,27,28,,,,3.7,3.6,1.0*3D
$GPGSV,3,1,11,05,12,191,00,08,12,074,00,09,31,277,46,15,69,298,43*78
$GPGSV,3,2,11,17,27,113,00,18,20,312,42,26,68,128,00,27,50,288,44*76
$GPGSV,3,3,11,28,44,052,00,33,33,214,00,37,33,213,00*47
$GPGLL,4424.8472,N,00852.9711,E,125834,A*2D
$GPVTG,356,T,355,M,001.9,N,0003.5,K*73
$GPRMC,125836,A,4424.8483,N,00852.9713,E,002.0,355.9,010611,000.9,E*79
$GPGGA,125836,4424.8483,N,00852.9713,E,1,06,3.6,11.8,M,48.2,M,,*7E
$GPGSA,A,3,,,09,15,,18,26,27,28,,,,3.7,3.6,1.0*3D
$GPGSV,3,1,11,05,12,191,00,08,12,074,00,09,31,277,45,15,69,298,42*7A
$GPGSV,3,2,11,17,27,113,00,18,20,312,43,26,68,128,34,27,50,288,45*71
$GPGSV,3,3,11,28,44,052,32,33,33,214,41,37,33,213,00*43
$GPGLL,4424.8483,N,00852.9713,E,125836,A*23
$GPVTG,356,T,355,M,002.0,N,0003.8,K*74
$GPRMC,125838,A,4424.8496,N,00852.9714,E,002.0,353.7,010611,000.9,E*7C
$GPGGA,125838,4424.8496,N,00852.9714,E,1,07,3.6,11.5,M,48.2,M,,*7F
$GPGSA,A,3,,,09,15,17,18,26,27,28,,,,3.7,3.6,1.0*3B
$GPGSV,3,1,11,05,12,191,00,08,12,074,00,09,31,277,45,15,69,298,42*7A
$GPGSV,3,2,11,17,27,113,37,18,20,312,45,26,68,128,33,27,50,288,46*77
$GPGSV,3,3,11,28,44,052,34,33,33,214,40,37,33,213,00*44
$GPGLL,4424.8496,N,00852.9714,E,125838,A*2E
$GPVTG,354,T,353,M,002.0,N,0003.7,K*7F
$GPRMC,125840,A,4424.8509,N,00852.9713,E,002.0,350.0,010611,000.9,E*77
$GPGGA,125840,4424.8509,N,00852.9713,E,1,07,3.6,11.2,M,48.2,M,,*77
$GPGSA,A,3,,,09,15,17,18,26,27,28,,,,3.7,3.6,1.0*3B
$GPGSV,3,1,11,05,12,191,00,08,12,074,00,09,31,277,45,15,69,298,42*7A
$GPGSV,3,2,11,17,27,113,35,18,20,312,44,26,68,128,00,27,50,288,46*74
$GPGSV,3,3,11,28,44,052,34,33,33,214,39,37,33,213,00*4A
$GPGLL,4424.8509,N,00852.9713,E,125840,A*21
$GPVTG,350,T,349,M,002.0,N,0003.7,K*70
$GPRMC,125842,A,4424.8522,N,00852.9712,E,002.0,355.5,010611,000.9,E*7D
$GPGGA,125842,4424.8522,N,00852.9712,E,1,07,3.6,11.2,M,48.2,M,,*7D
$GPGSA,A,3,,,09,15,17,18,26,27,28,,,,3.7,3.6,1.0*3B
$GPGSV,3,1,11,05,12,191,00,08,12,074,00,09,31,277,45,15,69,298,42*7A
$GPGSV,3,2,11,17,27,113,33,18,20,312,43,26,68,128,00,27,50,288,44*77
$GPGSV,3,3,11,28,44,052,00,33,33,214,39,37,33,213,36*48
$GPGLL,4424.8522,N,00852.9712,E,125842,A*2B
$GPVTG,355,T,355,M,002.0,N,0003.7,K*78
$GPRMC,125844,A,4424.8534,N,00852.9709,E,001.7,350.0,010611,000.9,E*72
$GPGGA,125844,4424.8534,N,00852.9709,E,1,07,4.2,11.0,M,48.2,M,,*77
$GPGSA,A,3,,,09,15,17,18,26,27,28,,,,4.4,4.2,1.0*3C
$GPGSV,3,1,11,05,12,191,00,08,12,074,00,09,31,277,44,15,69,298,43*7A
$GPGSV,3,2,11,17,27,113,40,18,20,312,44,26,67,129,00,27,50,288,44*7A
$GPGSV,3,3,11,28,44,052,00,33,33,214,38,37,33,213,00*4C
$GPGLL,4424.8534,N,00852.9709,E,125844,A*20
$GPVTG,350,T,349,M,001.7,N,0003.2,K*71
$GPRMC,125846,A,4424.8542,N,00852.9707,E,001.3,332.9,010611,000.9,E*76
$GPGGA,125846,4424.8542,N,00852.9707,E,1,07,2.9,10.6,M,48.2,M,,*70
$GPGSA,A,3,,,09,15,17,18,26,27,28,,,,3.6,2.9,1.0*34
$GPGSV,3,1,11,05,12,191,00,08,12,074,00,09,31,277,45,15,69,298,44*7C
$GPGSV,3,2,11,17,27,113,38,18,20,312,45,26,67,129,40,27,50,288,43*77
$GPGSV,3,3,11,28,44,052,00,33,33,214,37,37,33,213,41*46
$GPGLL,4424.8542,N,00852.9707,E,125846,A*2D
$GPVTG,333,T,332,M,001.3,N,0002.3,K*7C
$GPRMC,125848,A,4424.8549,N,00852.9701,E,001.4,329.3,010611,000.9,E*72
$GPGGA,125848,4424.8549,N,00852.9701,E,6,06,4.8,10.5,M,48.2,M,,*71
$GPGSA,A,3,,,09,15,17,18,26,27,,,,,5.4,4.8,1.0*3D
$GPGSV,3,1,11,05,12,191,00,08,12,074,00,09,31,277,45,15,69,298,43*7B
$GPGSV,3,2,11,17,27,113,00,18,20,312,00,26,67,129,38,27,51,289,42*73
$GPGSV,3,3,11,28,44,052,00,33,33,214,00,37,33,213,43*40
$GPGLL,4424.8549,N,00852.9701,E,125848,A*2E
$GPVTG,329,T,328,M,001.4,N,0002.5,K*7D
$GPRMC,125850,A,4424.8556,N,00852.9695,E,001.1,329.3,010611,000.9,E*7C
$GPGGA,125850,4424.8556,N,00852.9695,E,1,07,1.8,9.8,M,48.2,M,,*4C
$GPGSA,A,3,,,09,15,17,18,26,27,28,,,,2.7,1.8,1.3*35
$GPGSV,3,1,11,05,12,191,00,08,12,074,00,09,31,277,43,15,69,298,41*7F
$GPGSV,3,2,11,17,27,113,40,18,20,312,37,26,67,129,40,27,51,289,41*7F
$GPGSV,3,3,11,28,44,052,43,33,33,214,41,37,33,213,41*40
$GPGLL,4424.8556,N,00852.9695,E,125850,A*25
$GPVTG,329,T,328,M,001.1,N,0002.1,K*7C
$GPRMC,125852,A,4424.8555,N,00852.9685,E,001.5,265.9,010611,000.9,E*7B
$GPGGA,125852,4424.8555,N,00852.9685,E,1,07,1.6,8.7,M,48.2,M,,*4C
$GPGSA,A,3,,,09,15,17,18,26,27,28,,,,2.4,1.6,1.4*3F
$GPGSV,3,1,11,05,12,191,00,08,12,074,00,09,31,277,42,15,69,298,41*7E
$GPGSV,3,2,11,17,27,113,42,18,20,312,38,26,67,129,42,27,51,289,40*71
$GPGSV,3,3,11,28,43,052,41,33,33,214,41,37,33,213,40*44
$GPGLL,4424.8555,N,00852.9685,E,125852,A*25
$GPVTG,266,T,265,M,001.5,N,0002.8,K*73
$GPRMC,125854,A,4424.8550,N,00852.9667,E,002.2,255.5,010611,000.9,E*7F
$GPGGA,125854,4424.8550,N,00852.9667,E,1,07,1.8,8.6,M,48.2,M,,*4C
$GPGSA,A,3,,,09,15,17,18,26,27,28,,,,3.1,1.8,1.9*38
$GPGSV,3,1,11,05,12,191,00,08,12,074,00,09,31,277,41,15,69,298,40*7C
$GPGSV,3,2,11,17,27,113,40,18,20,312,37,26,67,129,43,27,51,289,40*7D
$GPGSV,3,3,11,28,43,052,41,33,33,214,41,37,33,213,41*45
$GPGLL,4424.8550,N,00852.9667,E,125854,A*2A
$GPVTG,256,T,255,M,002.2,N,0004.1,K*78
$GPRMC,125856,A,4424.8547,N,00852.9656,E,002.1,262.9,010611,000.9,E*72
$GPGGA,125856,4424.8547,N,00852.9656,E,1,07,2.3,8.2,M,48.2,M,,*46
$GPGSA,A,3,,,09,15,17,18,26,27,28,,,,3.5,2.3,1.2*3F
$GPGSV,3,1,11,05,12,191,00,08,12,074,00,09,31,277,39,15,69,298,39*7D
$GPGSV,3,2,11,17,27,113,42,18,20,312,35,26,67,129,44,27,51,289,39*74
$GPGSV,3,3,11,28,43,052,40,33,33,214,40,37,33,213,43*47
$GPGLL,4424.8547,N,00852.9656,E,125856,A*2C
$GPVTG,263,T,262,M,002.1,N,0003.9,K*76
$GPRMC,125858,A,4424.8541,N,00852.9640,E,002.0,269.3,010611,000.9,E*7D
$GPGGA,125858,4424.8541,N,00852.9640,E,1,07,1.8,7.0,M,48.2,M,,*4C
$GPGSA,A,3,,,09,15,17,18,26,27,28,,,,3.2,1.8,1.4*36
$GPGSV,3,1,11,05,12,191,00,08,12,074,00,09,31,277,40,15,69,298,38*72
$GPGSV,3,2,11,17,27,113,44,18,20,312,36,26,67,129,45,27,51,289,38*71
$GPGSV,3,3,11,28,43,052,38,33,33,214,00,37,33,213,44*4B
$GPGLL,4424.8541,N,00852.9640,E,125858,A*23
$GPVTG,269,T,268,M,002.0,N,0003.7,K*79
$GPRMC,125900,A,4424.8539,N,00852.9623,E,002.0,262.0,010611,000.9,E*73
$GPGGA,125900,4424.8539,N,00852.9623,E,1,07,1.9,6.6,M,48.2,M,,*4C
$GPGSA,A,3,,,09,15,17,18,26,27,28,,,,3.3,1.9,1.6*34
$GPGSV,3,1,11,05,12,191,00,08,12,074,00,09,31,277,39,15,69,298,39*7D
$GPGSV,3,2,11,17,27,113,45,18,20,312,00,26,67,129,44,27,51,289,38*74
$GPGSV,3,3,11,28,43,052,38,33,33,214,41,37,33,213,43*49
$GPGLL,4424.8539,N,00852.9623,E,125900,A*25
$GPVTG,262,T,261,M,002.0,N,0003.8,K*74
$GPRMC,125902,A,4424.8532,N,00852.9606,E,002.0,262.3,010611,000.9,E*7E
$GPGGA,125902,4424.8532,N,00852.9606,E,1,08,1.4,6.7,M,48.2,M,,*41
$GPGSA,A,3,05,,09,15,17,18,26,27,28,,,,2.6,1.4,1.8*36
$GPGSV,3,1,11,05,12,191,39,08,12,074,00,09,31,277,39,15,69,298,40*79
$GPGSV,3,2,11,17,27,113,45,18,20,312,00,26,67,129,45,27,51,289,38*75
$GPGSV,3,3,11,28,43,052,38,33,33,214,41,37,33,213,41*4B
$GPGLL,4424.8532,N,00852.9606,E,125902,A*2B
$GPVTG,262,T,261,M,002.0,N,0003.7,K*7B
$GPRMC,125904,A,4424.8525,N,00852.9587,E,002.2,257.0,010611,000.9,E*73
$GPGGA,125904,4424.8525,N,00852.9587,E,1,08,1.7,6.5,M,48.2,M,,*4A
$GPGSA,A,3,05,,09,15,17,18,26,27,28,,,,2.8,1.7,1.0*33
$GPGSV,3,1,11,05,12,191,45,08,12,074,00,09,31,277,00,15,69,298,40*78
$GPGSV,3,2,11,17,27,113,44,18,20,312,00,26,67,129,44,27,51,289,38*75
$GPGSV,3,3,11,28,43,052,38,33,33,214,41,37,33,213,42*48
$GPGLL,4424.8525,N,00852.9587,E,125904,A*21
$GPVTG,257,T,256,M,002.2,N,0004.1,K*7A
$GPRMC,125906,A,4424.8519,N,00852.9571,E,002.2,252.4,010611,000.9,E*76
$GPGGA,125906,4424.8519,N,00852.9571,E,1,08,2.0,6.4,M,48.2,M,,*4B
$GPGSA,A,3,05,,09,15,17,18,26,27,28,,,,2.8,2.0,1.0*37
$GPGSV,3,1,11,05,12,191,45,08,12,074,00,09,31,277,40,15,69,298,39*72
$GPGSV,3,2,11,17,27,113,43,18,20,312,00,26,67,129,44,27,51,289,38*72
$GPGSV,3,3,11,28,43,052,38,33,33,214,41,37,33,213,44*4E
$GPGLL,4424.8519,N,00852.9571,E,125906,A*25
$GPVTG,252,T,252,M,002.2,N,0004.0,K*7A
$GPRMC,125908,A,4424.8511,N,00852.9554,E,002.2,251.4,010611,000.9,E*74
$GPGGA,125908,4424.8511,N,00852.9554,E,1,08,2.3,6.3,M,48.2,M,,*4E
$GPGSA,A,3,05,,09,15,17,18,26,27,28,,,,3.0,2.3,1.0*3D
$GPGSV,3,1,11,05,12,191,45,08,12,074,00,09,31,277,40,15,69,298,39*72
$GPGSV,3,2,11,17,27,113,45,18,20,312,39,26,67,129,44,27,51,289,39*7F
$GPGSV,3,3,11,28,43,052,38,33,33,214,42,37,33,213,44*4D
$GPGLL,4424.8511,N,00852.9554,E,125908,A*24
$GPVTG,251,T,251,M,002.2,N,0004.0,K*7A
$GPRMC,125910,A,4424.8504,N,00852.9539,E,002.1,250.0,010611,000.9,E*74
$GPGGA,125910,4424.8504,N,00852.9539,E,1,08,2.5,6.4,M,48.2,M,,*49
$GPGSA,A,3,05,,09,15,17,18,26,27,28,,,,3.3,2.5,1.3*3B
$GPGSV,3,1,11,05,12,191,45,08,12,074,00,09,31,277,39,15,69,298,40*72
$GPGSV,3,2,11,17,27,113,46,18,20,312,38,26,67,129,44,27,51,289,38*7C
$GPGSV,3,3,11,28,43,052,39,33,33,214,42,37,33,213,44*4C
$GPGLL,4424.8504,N,00852.9539,E,125910,A*22
$GPVTG,250,T,249,M,002.1,N,0003.8,K*7E
$GPRMC,125912,A,4424.8498,N,00852.9521,E,002.1,252.5,010611,000.9,E*7C
$GPGGA,125912,4424.8498,N,00852.9521,E,1,08,1.5,6.0,M,48.2,M,,*41
$GPGSA,A,3,05,,09,15,17,18,26,27,28,,,,2.2,1.5,1.5*3E
$GPGSV,3,1,11,05,12,191,46,08,12,074,00,09,31,277,39,15,69,298,41*70
$GPGSV,3,2,11,17,27,113,47,18,20,312,39,26,67,129,44,27,51,289,37*73
$GPGSV,3,3,11,28,43,052,38,33,33,214,43,37,33,213,44*4C
$GPGLL,4424.8498,N,00852.9521,E,125912,A*2D
$GPVTG,252,T,252,M,002.1,N,0003.9,K*77
$GPRMC,125914,A,4424.8493,N,00852.9504,E,002.1,257.4,010611,000.9,E*72
$GPGGA,125914,4424.8493,N,00852.9504,E,2,08,1.8,5.8,M,48.2,M,,*4E
$GPGSA,A,3,05,,09,15,17,18,26,27,28,,,,2.5,1.8,1.2*33
$GPGSV,3,1,11,05,12,191,46,08,12,074,00,09,31,277,39,15,69,298,40*71
$GPGSV,3,2,11,17,27,113,47,18,20,312,38,26,67,129,44,27,51,289,39*7C
$GPGSV,3,3,11,28,43,052,38,33,33,214,43,37,33,213,44*4C
$GPGLL,4424.8493,N,00852.9504,E,125914,A*27
$GPVTG,257,T,257,M,002.1,N,0003.9,K*77
$GPRMC,125916,A,4424.8488,N,00852.9488,E,002.0,262.0,010611,000.9,E*7C
