$GPGLL,4424.8370,N,00852.8686,E,130130,A*2F
$GPVTG,243,T,242,M,001.6,N,0002.9,K*73
$GPRMC,130132,A,4424.8361,N,00852.8680,E,001.7,223.1,010611,000.9,E*7D
$GPGGA,130132,4424.8361,N,00852.8680,E,2,05,2.9,5.7,M,48.2,M,,*42
$GPGSA,A,3,05,08,,,17,,26,,28,,,,3.6,2.9,1.0*38
$GPGSV,3,1,11,05,11,190,47,08,12,075,39,09,32,278,00,15,69,297,00*74
$GPGSV,3,2,11,17,27,112,46,18,20,312,00,26,66,130,43,27,52,289,00*70
$GPGSV,3,3,11,28,42,051,38,33,33,214,00,37,33,213,42*4F
$GPGLL,4424.8361,N,00852.8680,E,130132,A*2B
$GPVTG,223,T,222,M,001.7,N,0003.1,K*7B
$GPRMC,130134,A,4424.8352,N,00852.8674,E,001.7,216.9,010611,000.9,E*7E
$GPGGA,130134,4424.8352,N,00852.8674,E,1,05,2.9,5.7,M,48.2,M,,*4C
$GPGSA,A,3,05,08,,,17,,26,,28,,,,3.7,2.9,1.1*38
$GPGSV,3,1,11,05,11,190,46,08,12,075,41,09,32,278,00,15,69,297,00*7A
$GPGSV,3,2,11,17,27,112,47,18,20,312,00,26,66,130,44,27,52,289,00*76
$GPGSV,3,3,11,28,42,051,40,33,33,214,00,37,33,213,42*40
$GPGLL,4424.8352,N,00852.8674,E,130134,A*26
$GPVTG,217,T,216,M,001.7,N,0003.2,K*78
$GPRMC,130136,A,4424.8345,N,00852.8667,E,001.7,213.5,010611,000.9,E*71
$GPGGA,130136,4424.8345,N,00852.8667,E,1,05,3.1,5.7,M,48.2,M,,*43
$GPGSA,A,3,05,08,,,17,,26,,28,,,,3.8,3.1,1.1*3E
$GPGSV,3,1,11,05,11,190,46,08,11,075,43,09,32,278,00,15,69,297,00*7B
$GPGSV,3,2,11,17,27,112,47,18,20,312,00,26,66,130,43,27,52,289,00*71
$GPGSV,3,3,11,28,42,051,39,33,33,214,00,37,33,213,43*4F
$GPGLL,4424.8345,N,00852.8667,E,130136,A*20
$GPVTG,213,T,213,M,001.7,N,0003.2,K*79
$GPRMC,130138,A,4424.8343,N,00852.8663,E,000.5,211.1,010611,000.9,E*78
$GPGGA,130138,4424.8343,N,00852.8663,E,1,05,3.1,5.5,M,48.2,M,,*4D
$GPGSA,A,3,05,08,,,17,,26,,28,,,,3.8,3.1,1.1*3E
$GPGSV,3,1,11,05,11,190,46,08,11,075,44,09,32,278,00,15,69,297,00*7C
$GPGSV,3,2,11,17,27,112,46,18,20,312,00,26,66,130,43,27,52,289,00*70
$GPGSV,3,3,11,28,42,051,38,33,33,214,00,37,33,213,43*4E
$GPGLL,4424.8343,N,00852.8663,E,130138,A*2C
$GPVTG,211,T,210,M,000.5,N,0000.9,K*73
$GPRMC,130140,A,4424.8345,N,00852.8665,E,000.0,211.1,010611,000.9,E*72
$GPGGA,130140,4424.8345,N,00852.8665,E,1,05,2.3,5.2,M,48.2,M,,*46
$GPGSA,A,3,05,08,,,17,,26,,28,,,,2.9,2.3,1.1*3D
$GPGSV,3,1,11,05,11,190,45,08,11,075,45,09,32,279,00,15,69,297,00*7F
$GPGSV,3,2,11,17,27,112,45,18,20,312,00,26,66,130,43,27,52,290,00*7B
$GPGSV,3,3,11,28,42,051,38,33,33,214,00,37,33,213,42*4F
$GPGLL,4424.8345,N,00852.8665,E,130140,A*23
$GPVTG,211,T,210,M,000.0,N,0000.0,K*7F
$GPRMC,130142,A,4424.8347,N,00852.8668,E,000.0,211.1,010611,000.9,E*7F
$GPGGA,130142,4424.8347,N,00852.8668,E,1,05,2.4,4.7,M,48.2,M,,*48
$GPGSA,A,3,05,08,,,17,,26,,28,,,,3.0,2.4,1.2*31
$GPGSV,3,1,11,05,11,190,43,08,11,075,45,09,32,279,00,15,69,297,00*79
$GPGSV,3,2,11,17,27,112,45,18,20,312,00,26,66,130,42,27,52,290,00*7A
$GPGSV,3,3,11,28,42,051,37,33,33,214,00,37,33,213,42*40
$GPGLL,4424.8347,N,00852.8668,E,130142,A*2E
$GPVTG,211,T,210,M,000.0,N,0000.0,K*7F
$GPRMC,130144,A,4424.8345,N,00852.8673,E,000.0,211.1,010611,000.9,E*71
$GPGGA,130144,4424.8345,N,00852.8673,E,1,05,2.7,4.6,M,48.2,M,,*44
$GPGSA,A,3,05,08,,,17,,26,,28,,,,3.2,2.7,1.1*33
$GPGSV,3,1,11,05,11,190,43,08,11,075,44,09,32,279,00,15,69,297,00*78
$GPGSV,3,2,11,17,27,112,45,18,20,312,00,26,66,130,43,27,52,290,00*7B
$GPGSV,3,3,11,28,42,051,39,33,33,214,00,37,33,213,43*4F
$GPGLL,4424.8345,N,00852.8673,E,130144,A*20
$GPVTG,211,T,210,M,000.0,N,0000.0,K*7F
$GPRMC,130146,A,4424.8344,N,00852.8675,E,000.0,211.1,010611,000.9,E*74
$GPGGA,130146,4424.8344,N,00852.8675,E,1,05,2.3,4.3,M,48.2,M,,*40
$GPGSA,A,3,05,08,,,17,,26,,28,,,,2.9,2.3,1.2*3E
$GPGSV,3,1,11,05,11,190,43,08,11,075,43,09,32,279,00,15,69,297,00*7F
$GPGSV,3,2,11,17,27,112,45,18,20,312,00,26,66,130,44,27,52,290,00*7C
$GPGSV,3,3,11,28,42,051,40,33,33,214,00,37,33,213,43*41
$GPGLL,4424.8344,N,00852.8675,E,130146,A*25
$GPVTG,211,T,210,M,000.0,N,0000.0,K*7F
$GPRMC,130148,A,4424.8344,N,00852.8676,E,000.0,211.1,010611,000.9,E*79
$GPGGA,130148,4424.8344,N,00852.8676,E,1,05,2.4,3.8,M,48.2,M,,*46
$GPGSA,A,3,05,08,,,17,,26,,28,,,,3.0,2.4,1.3*30
$GPGSV,3,1,11,05,11,190,42,08,11,075,43,09,32,279,00,15,69,297,00*7E
$GPGSV,3,2,11,17,27,112,45,18,20,312,00,26,66,130,44,27,52,290,00*7C
$GPGSV,3,3,11,28,42,051,39,33,33,214,00,37,33,213,43*4F
$GPGLL,4424.8344,N,00852.8676,E,130148,A*28
$GPVTG,211,T,210,M,000.0,N,0000.0,K*7F
$GPRMC,130150,A,4424.8342,N,00852.8679,E,000.0,211.1,010611,000.9,E*79
$GPGGA,130150,4424.8342,N,00852.8679,E,1,05,2.3,3.5,M,48.2,M,,*4C
$GPGSA,A,3,05,08,,,17,,26,,28,,,,2.9,2.3,1.3*3F
$GPGSV,3,1,11,05,11,190,42,08,11,075,43,09,32,279,00,15,69,297,00*7E
$GPGSV,3,2,11,17,27,112,46,18,20,312,00,26,66,130,44,27,52,290,00*7F
$GPGSV,3,3,11,28,42,051,40,33,33,214,00,37,33,213,44*46
$GPGLL,4424.8342,N,00852.8679,E,130150,A*28
$GPVTG,211,T,210,M,000.0,N,0000.0,K*7F
$GPRMC,130152,A,4424.8339,N,00852.8683,E,000.0,211.1,010611,000.9,E*72
$GPGGA,130152,4424.8339,N,00852.8683,E,1,05,2.3,3.3,M,48.2,M,,*41
$GPGSA,A,3,05,08,,,17,,26,,28,,,,2.9,2.3,1.3*3F
$GPGSV,3,1,11,05,11,190,42,08,11,075,43,09,32,279,00,15,69,297,00*7E
